id,internal_id,title_abbreviation,address,price,price_per_unit_area,size_with_square_meter,construction_year,levels,bedrooms,bathrooms,date,extraction_date,geo_lat,geo_lng,company_title,account_id,ad_group_id,url,dimos,perioxi,type,area,price_per_area,level_list,min_level,level_length,temp_no,temp_date_unit,days_passed
815053331,47143151,Διαμέρισμα 54 τ.μ.,Αθήνα (Λυκαβηττός),560.0,10,54 τ.μ.,1970.0,"['-1', '0']",1.0,1.0,πριν από 2 ημέρες,2023-06-01,37.97977657228816,23.7428840267846,,2267566.0,,https://www.xe.gr/property/d/enoikiaseis-katoikion/815053331/athhna-lykavhttos-560-54,Αθήνα,Λυκαβηττός,Διαμέρισμα,54.0,10.37037037037037,"[-1.0, 0.0]",0.0,2,2,ημ,2
815047933,47142491,Διαμέρισμα 45 τ.μ.,Αθήνα (Άνω Πατήσια),420.0,9,45 τ.μ.,1969.0,['1'],1.0,1.0,πριν από 2 ημέρες,2023-06-01,38.01748120388152,23.73568359088844,,1407351.0,459093.0,https://www.xe.gr/property/d/enoikiaseis-katoikion/815047933/athhna-anw-pathsia-420-45,Αθήνα,Άνω Πατήσια,Διαμέρισμα,45.0,9.333333333333334,[1.0],1.0,1,2,ημ,2
815017929,47140206,Διαμέρισμα 60 τ.μ.,Αθήνα (Κουντουριώτικα),780.0,13,60 τ.μ.,1975.0,['2'],1.0,1.0,πριν από 2 ημέρες,2023-06-01,37.99229079917208,23.75557862318335,,110841.0,,https://www.xe.gr/property/d/enoikiaseis-katoikion/815017929/athhna-koyntoyriwtika-780-60,Αθήνα,Κουντουριώτικα,Διαμέρισμα,60.0,13.0,[2.0],2.0,1,2,ημ,2
814952950,47138240,Διαμέρισμα 55 τ.μ.,Αθήνα (Πολύγωνο),600.0,11,55 τ.μ.,1981.0,['1'],1.0,1.0,πριν από 3 ημέρες,2023-06-01,37.99908252585826,23.755417176148395,,1344554.0,,https://www.xe.gr/property/d/enoikiaseis-katoikion/814952950/athhna-polygwno-600-55,Αθήνα,Πολύγωνο,Διαμέρισμα,55.0,10.909090909090908,[1.0],1.0,1,3,ημ,3
814956607,47138448,Διαμέρισμα 50 τ.μ.,Αθήνα (Πανόρμου),790.0,16,50 τ.μ.,1970.0,['1'],1.0,1.0,πριν από 3 ημέρες,2023-06-01,37.990937,23.765072,BLUEGROUND REAL ESTATE,1220409.0,,https://www.xe.gr/property/d/enoikiaseis-katoikion/814956607/athhna-panormoy-790-50,Αθήνα,Πανόρμου,Διαμέρισμα,50.0,15.8,[1.0],1.0,1,3,ημ,3
814941511,47137519,Διαμέρισμα 49 τ.μ.,Αθήνα (Λόφος Σκουζέ),400.0,8,49 τ.μ.,1972.0,['1'],1.0,1.0,πριν από 3 ημέρες,2023-06-01,38.00010355224278,23.71912616346576,Energy Real Estate,2203409.0,,https://www.xe.gr/property/d/enoikiaseis-katoikion/814941511/athhna-lofos-skoyze-400-49,Αθήνα,Λόφος Σκουζέ,Διαμέρισμα,49.0,8.16326530612245,[1.0],1.0,1,3,ημ,3
814950238,47138010,Διαμέρισμα 140 τ.μ.,Αθήνα (Κάτω Πατήσια),800.0,6,140 τ.μ.,1975.0,['0'],4.0,1.0,πριν από 3 ημέρες,2023-06-01,38.009415122490125,23.727649156421045,,1868680.0,,https://www.xe.gr/property/d/enoikiaseis-katoikion/814950238/athhna-katw-pathsia-800-140,Αθήνα,Κάτω Πατήσια,Διαμέρισμα,140.0,5.714285714285714,[0.0],0.0,1,3,ημ,3
814956476,47138443,Διαμέρισμα 50 τ.μ.,Αθήνα (Μετς),920.0,18,50 τ.μ.,1970.0,['3'],1.0,2.0,πριν από 3 ημέρες,2023-06-01,37.966088,23.736364,BLUEGROUND REAL ESTATE,1220409.0,,https://www.xe.gr/property/d/enoikiaseis-katoikion/814956476/athhna-mets-920-50,Αθήνα,Μετς,Διαμέρισμα,50.0,18.4,[3.0],3.0,1,3,ημ,3
814547213,47119901,Διαμέρισμα 34 τ.μ.,Αθήνα (Ιπποκράτειο),450.0,13,34 τ.μ.,,['5'],1.0,1.0,πριν από 1 εβδομάδα,2023-06-01,37.98369429415896,23.760133766628016,,1416328.0,458953.0,https://www.xe.gr/property/d/enoikiaseis-katoikion/814547213/athhna-ippokrateio-450-34,Αθήνα,Ιπποκράτειο,Διαμέρισμα,34.0,13.235294117647058,[5.0],5.0,1,1,εβ,7
814167147,47102797,Διαμέρισμα 70 τ.μ.,Αθήνα (Λόφος Σκουζέ),630.0,9,70 τ.μ.,,['4'],2.0,1.0,πριν από 2 εβδομάδες,2023-06-01,38.001683,23.71732,,2264910.0,,https://www.xe.gr/property/d/enoikiaseis-katoikion/814167147/athhna-lofos-skoyze-630-70,Αθήνα,Λόφος Σκουζέ,Διαμέρισμα,70.0,9.0,[4.0],4.0,1,2,εβ,14
813669984,47067362,Διαμέρισμα 71 τ.μ.,Αθήνα (Γκύζη),650.0,9,71 τ.μ.,,['3'],2.0,1.0,πριν από 3 εβδομάδες,2023-06-01,37.989852228966,23.74572375691747,,1957926.0,,https://www.xe.gr/property/d/enoikiaseis-katoikion/813669984/athhna-gkyzh-650-71,Αθήνα,Γκύζη,Διαμέρισμα,71.0,9.154929577464788,[3.0],3.0,1,3,εβ,21
815039336,47141594,Διαμέρισμα 120 τ.μ.,Αθήνα (Ιπποκράτους),1350.0,11,120 τ.μ.,1970.0,['5'],2.0,2.0,πριν από 2 ημέρες,2023-06-01,37.98424773725265,23.741032532591323,T & D Properties,227136.0,,https://www.xe.gr/property/d/enoikiaseis-katoikion/815039336/athhna-ippokratoys-1350-120,Αθήνα,Ιπποκράτους,Διαμέρισμα,120.0,11.25,[5.0],5.0,1,2,ημ,2
814509653,47118980,Μονοκατοικία 45 τ.μ.,Αθήνα (Ελαιώνας),320.0,7,45 τ.μ.,1970.0,['0'],1.0,2.0,πριν από 1 εβδομάδα,2023-06-01,37.99035,23.69661,One Real Estate,1168303.0,,https://www.xe.gr/property/d/enoikiaseis-katoikion/814509653/athhna-elaiwnas-320-45,Αθήνα,Ελαιώνας,Μονοκατοικία,45.0,7.111111111111111,[0.0],0.0,1,1,εβ,7
814981443,47138678,Διαμέρισμα 23 τ.μ.,Αθήνα (Άνω Πατήσια),270.0,12,23 τ.μ.,,['4'],1.0,1.0,πριν από 2 ημέρες,2023-06-01,38.01644970673298,23.732061846366857,,795832.0,,https://www.xe.gr/property/d/enoikiaseis-katoikion/814981443/athhna-anw-pathsia-270-23,Αθήνα,Άνω Πατήσια,Διαμέρισμα,23.0,11.73913043478261,[4.0],4.0,1,2,ημ,2
815025104,47140595,Διαμέρισμα 44 τ.μ.,Αθήνα (Άγιος Σώστης),630.0,14,44 τ.μ.,1970.0,['3'],1.0,1.0,πριν από 2 ημέρες,2023-06-01,37.95534774665138,23.719180562120613,Karasso Maya Moshe,1988028.0,,https://www.xe.gr/property/d/enoikiaseis-katoikion/815025104/athhna-agios-swsths-630-44,Αθήνα,Άγιος Σώστης,Διαμέρισμα,44.0,14.318181818181818,[3.0],3.0,1,2,ημ,2
814601986,47123033,Διαμέρισμα 80 τ.μ.,Αθήνα (Εξάρχεια),750.0,9,80 τ.μ.,1975.0,['4'],2.0,1.0,πριν από 1 εβδομάδα,2023-06-01,37.98605383506927,23.73440583058724,Attica Real Estate Management,1953963.0,,https://www.xe.gr/property/d/enoikiaseis-katoikion/814601986/athhna-exarcheia-750-80,Αθήνα,Εξάρχεια,Διαμέρισμα,80.0,9.375,[4.0],4.0,1,1,εβ,7
741281961,44522729,Διαμέρισμα 71 τ.μ.,Αθήνα (Πεδίον Άρεως),480.0,7,71 τ.μ.,,['1'],2.0,1.0,πριν από 2 μήνες,2023-06-01,37.991286,23.741207,,964664.0,,https://www.xe.gr/property/d/enoikiaseis-katoikion/741281961/athhna-pedion-arews-480-71,Αθήνα,Πεδίον Άρεως,Διαμέρισμα,71.0,6.76056338028169,[1.0],1.0,1,2,μή,60
814603074,47123134,Διαμέρισμα 35 τ.μ.,Αθήνα (Πλατεία Αττικής),300.0,9,35 τ.μ.,1978.0,['1'],1.0,1.0,πριν από 1 εβδομάδα,2023-06-01,37.99434038563212,23.724767141803984,Energy Real Estate,2203409.0,,https://www.xe.gr/property/d/enoikiaseis-katoikion/814603074/athhna-plateia-attikhs-300-35,Αθήνα,Πλατεία Αττικής,Διαμέρισμα,35.0,8.571428571428571,[1.0],1.0,1,1,εβ,7
815009415,47139759,Διαμέρισμα 35 τ.μ.,Αθήνα (Άνω Κυψέλη),400.0,11,35 τ.μ.,1980.0,['4'],1.0,1.0,πριν από 2 ημέρες,2023-06-01,38.00493059463576,23.73706724985917,,1275896.0,,https://www.xe.gr/property/d/enoikiaseis-katoikion/815009415/athhna-anw-kypselh-400-35,Αθήνα,Άνω Κυψέλη,Διαμέρισμα,35.0,11.428571428571429,[4.0],4.0,1,2,ημ,2
814506601,47118732,Διαμέρισμα 47 τ.μ.,Αθήνα (Κεραμεικός),480.0,10,47 τ.μ.,,['4'],1.0,1.0,πριν από 1 εβδομάδα,2023-06-01,37.98404675248744,23.716176532614764,,1330034.0,,https://www.xe.gr/property/d/enoikiaseis-katoikion/814506601/athhna-kerameikos-480-47,Αθήνα,Κεραμεικός,Διαμέρισμα,47.0,10.212765957446809,[4.0],4.0,1,1,εβ,7
814823409,47132920,Διαμέρισμα 38 τ.μ.,Αθήνα (Άγιος Λουκάς),340.0,9,38 τ.μ.,1975.0,['4'],1.0,,πριν από 4 ημέρες,2023-06-01,38.01539636024373,23.738558271851627,Energy Real Estate,2203409.0,,https://www.xe.gr/property/d/enoikiaseis-katoikion/814823409/athhna-agios-loykas-340-38,Αθήνα,Άγιος Λουκάς,Διαμέρισμα,38.0,8.947368421052632,[4.0],4.0,1,4,ημ,4
815020749,47140290,Διαμέρισμα 98 τ.μ.,Αθήνα (Κέντρο),600.0,6,98 τ.μ.,1976.0,['1'],2.0,1.0,πριν από 2 ημέρες,2023-06-01,37.975231,23.778793,Jaguar Real Estate,1411337.0,,https://www.xe.gr/property/d/enoikiaseis-katoikion/815020749/athhna-kentro-600-98,Αθήνα,Κέντρο,Διαμέρισμα,98.0,6.122448979591836,[1.0],1.0,1,2,ημ,2
814396726,47113917,Διαμέρισμα 38 τ.μ.,Αθήνα (Ηπείρου),350.0,9,38 τ.μ.,1970.0,['3'],1.0,1.0,πριν από 1 εβδομάδα,2023-06-01,37.99151,23.7245,One Real Estate,1168303.0,,https://www.xe.gr/property/d/enoikiaseis-katoikion/814396726/athhna-hpeiroy-350-38,Αθήνα,Ηπείρου,Διαμέρισμα,38.0,9.210526315789474,[3.0],3.0,1,1,εβ,7
814822124,47132891,Διαμέρισμα 65 τ.μ.,Αθήνα (Ακαδημία Πλάτωνος),450.0,7,65 τ.μ.,1970.0,['1'],1.0,,πριν από 4 ημέρες,2023-06-01,37.9947112941584,23.706261853998218,Energy Real Estate,2203409.0,,https://www.xe.gr/property/d/enoikiaseis-katoikion/814822124/athhna-akadhmia-platwnos-450-65,Αθήνα,Ακαδημία Πλάτωνος,Διαμέρισμα,65.0,6.923076923076923,[1.0],1.0,1,4,ημ,4
814935721,47137046,Διαμέρισμα 120 τ.μ.,Αθήνα (Κουκάκι),2000.0,17,120 τ.μ.,,['4'],2.0,1.0,πριν από 3 ημέρες,2023-06-01,37.96451674794192,23.72677121889725,,1663169.0,,https://www.xe.gr/property/d/enoikiaseis-katoikion/814935721/athhna-koykaki-2000-120,Αθήνα,Κουκάκι,Διαμέρισμα,120.0,16.666666666666668,[4.0],4.0,1,3,ημ,3
814040122,47093388,Διαμέρισμα 34 τ.μ.,Αθήνα (Κυψέλη),250.0,7,34 τ.μ.,,['-0.5'],1.0,1.0,πριν από 2 εβδομάδες,2023-06-01,37.999204,23.736728,,1915183.0,,https://www.xe.gr/property/d/enoikiaseis-katoikion/814040122/athhna-kypselh-250-34,Αθήνα,Κυψέλη,Διαμέρισμα,34.0,7.352941176470588,[-0.5],-0.5,1,2,εβ,14
815034775,47141161,Διαμέρισμα 30 τ.μ.,Αθήνα (Προφήτης Ηλίας),500.0,17,30 τ.μ.,1975.0,['3'],1.0,1.0,πριν από 2 ημέρες,2023-06-01,37.966688,23.749356,Papavlasopoulos Real Estate,383329.0,,https://www.xe.gr/property/d/enoikiaseis-katoikion/815034775/athhna-profhths-hlias-500-30,Αθήνα,Προφήτης Ηλίας,Διαμέρισμα,30.0,16.666666666666668,[3.0],3.0,1,2,ημ,2
814675910,47125865,Διαμέρισμα 150 τ.μ.,Αθήνα (Ακαδημία Πλάτωνος),650.0,4,150 τ.μ.,1975.0,['1'],3.0,2.0,πριν από 6 ημέρες,2023-06-01,37.99260857228801,23.70911007576284,,2266407.0,,https://www.xe.gr/property/d/enoikiaseis-katoikion/814675910/athhna-akadhmia-platwnos-650-150,Αθήνα,Ακαδημία Πλάτωνος,Διαμέρισμα,150.0,4.333333333333333,[1.0],1.0,1,6,ημ,6
814886189,47134760,Διαμέρισμα 98 τ.μ.,Αθήνα (Άνω Κυψέλη),700.0,7,98 τ.μ.,2006.0,['1'],2.0,1.0,πριν από 3 ημέρες,2023-06-01,38.00449708390309,23.740312522594408,Art Real Estate,1616976.0,,https://www.xe.gr/property/d/enoikiaseis-katoikion/814886189/athhna-anw-kypselh-700-98,Αθήνα,Άνω Κυψέλη,Διαμέρισμα,98.0,7.142857142857143,[1.0],1.0,1,3,ημ,3
814604170,47123310,Διαμέρισμα 80 τ.μ.,Αθήνα (Κάτω Πετράλωνα),780.0,10,80 τ.μ.,2009.0,['5'],3.0,1.0,πριν από 1 εβδομάδα,2023-06-01,37.97226571115044,23.708427453060512,,1537308.0,,https://www.xe.gr/property/d/enoikiaseis-katoikion/814604170/athhna-katw-petralwna-780-80,Αθήνα,Κάτω Πετράλωνα,Διαμέρισμα,80.0,9.75,[5.0],5.0,1,1,εβ,7
814658651,47125104,Διαμέρισμα 126 τ.μ.,Αθήνα (Εξάρχεια),1500.0,12,126 τ.μ.,1933.0,['2'],3.0,,πριν από 6 ημέρες,2023-06-01,37.986494,23.735591,,590011.0,,https://www.xe.gr/property/d/enoikiaseis-katoikion/814658651/athhna-exarcheia-1500-126,Αθήνα,Εξάρχεια,Διαμέρισμα,126.0,11.904761904761905,[2.0],2.0,1,6,ημ,6
814530495,47119691,Διαμέρισμα 55 τ.μ.,Αθήνα (Κολωνάκι),600.0,11,55 τ.μ.,1970.0,['2'],1.0,1.0,πριν από 1 εβδομάδα,2023-06-01,37.978709,23.739338,Τσαούσης - Σταυρόπουλος,215073.0,,https://www.xe.gr/property/d/enoikiaseis-katoikion/814530495/athhna-kolwnaki-600-55,Αθήνα,Κολωνάκι,Διαμέρισμα,55.0,10.909090909090908,[2.0],2.0,1,1,εβ,7
815037032,47138788,Διαμέρισμα 70 τ.μ.,Αθήνα (Παγκράτι),600.0,9,70 τ.μ.,,['2'],2.0,,πριν από 2 ημέρες,2023-06-01,37.96876978734783,23.75004078883828,,,,https://www.xe.gr/property/d/enoikiaseis-katoikion/815037032/athhna-pagkrati-600-70,Αθήνα,Παγκράτι,Διαμέρισμα,70.0,8.571428571428571,[2.0],2.0,1,2,ημ,2
814971042,47138534,Διαμέρισμα 45 τ.μ.,Αθήνα (Παγκράτι),450.0,10,45 τ.μ.,1971.0,['0.5'],1.0,1.0,πριν από 3 ημέρες,2023-06-01,37.97010173725681,23.745383264610638,,1081978.0,,https://www.xe.gr/property/d/enoikiaseis-katoikion/814971042/athhna-pagkrati-450-45,Αθήνα,Παγκράτι,Διαμέρισμα,45.0,10.0,[0.5],0.5,1,3,ημ,3
815037185,47140211,Διαμέρισμα 96 τ.μ.,Αθήνα (Άγιος Θωμάς),800.0,8,96 τ.μ.,,['2'],2.0,,πριν από 2 ημέρες,2023-06-01,37.98258531856988,23.76540875713288,,605364.0,,https://www.xe.gr/property/d/enoikiaseis-katoikion/815037185/athhna-agios-thwmas-800-96,Αθήνα,Άγιος Θωμάς,Διαμέρισμα,96.0,8.333333333333334,[2.0],2.0,1,2,ημ,2
813698557,47067864,Διαμέρισμα 50 τ.μ.,Αθήνα (Πλατεία Αττικής),380.0,8,50 τ.μ.,1974.0,"['0', '0.5']",1.0,1.0,πριν από 2 εβδομάδες,2023-06-01,37.99452,23.72534,One Real Estate,1168303.0,,https://www.xe.gr/property/d/enoikiaseis-katoikion/813698557/athhna-plateia-attikhs-380-50,Αθήνα,Πλατεία Αττικής,Διαμέρισμα,50.0,7.6,"[0.0, 0.5]",0.0,2,2,εβ,14
815037079,47141329,Διαμέρισμα 75 τ.μ.,Αθήνα (Κολωνάκι),1090.0,15,75 τ.μ.,,['4'],,,πριν από 2 ημέρες,2023-06-01,37.976345207875845,23.74903873132088,,517655.0,,https://www.xe.gr/property/d/enoikiaseis-katoikion/815037079/athhna-kolwnaki-1090-75,Αθήνα,Κολωνάκι,Διαμέρισμα,75.0,14.533333333333333,[4.0],4.0,1,2,ημ,2
814888188,47134820,Διαμέρισμα 70 τ.μ.,Αθήνα (Άγιος Θωμάς),700.0,10,70 τ.μ.,1975.0,['2'],2.0,1.0,πριν από 3 ημέρες,2023-06-01,37.98073792235824,23.758096419146064,Μεσιτικές Υπηρεσίες Θανασης Ευθυμιου,2117145.0,,https://www.xe.gr/property/d/enoikiaseis-katoikion/814888188/athhna-agios-thwmas-700-70,Αθήνα,Άγιος Θωμάς,Διαμέρισμα,70.0,10.0,[2.0],2.0,1,3,ημ,3
814603286,47123175,Διαμέρισμα 85 τ.μ.,Αθήνα (Πλατεία Αμερικής),500.0,6,85 τ.μ.,1970.0,['1'],2.0,,πριν από 1 εβδομάδα,2023-06-01,38.00124054825746,23.733395798099803,Lion Real Estate,728410.0,,https://www.xe.gr/property/d/enoikiaseis-katoikion/814603286/athhna-plateia-amerikhs-500-85,Αθήνα,Πλατεία Αμερικής,Διαμέρισμα,85.0,5.882352941176471,[1.0],1.0,1,1,εβ,7
814546542,47119910,Διαμέρισμα 64 τ.μ.,Αθήνα (Κουντουριώτικα),900.0,14,64 τ.μ.,1970.0,['4'],2.0,2.0,πριν από 1 εβδομάδα,2023-06-01,37.98289809159743,23.75334006408932,,1923447.0,459167.0,https://www.xe.gr/property/d/enoikiaseis-katoikion/814546542/athhna-koyntoyriwtika-900-64,Αθήνα,Κουντουριώτικα,Διαμέρισμα,64.0,14.0625,[4.0],4.0,1,1,εβ,7
813800615,47075816,Διαμέρισμα 62 τ.μ.,Αθήνα (Παναθηναϊκό Στάδιο),540.0,9,62 τ.μ.,1965.0,['0.5'],1.0,1.0,πριν από 2 εβδομάδες,2023-06-01,37.96671734314891,23.74081103063706,,68169.0,,https://www.xe.gr/property/d/enoikiaseis-katoikion/813800615/athhna-panathhnaiko-stadio-540-62,Αθήνα,Παναθηναϊκό Στάδιο,Διαμέρισμα,62.0,8.709677419354838,[0.5],0.5,1,2,εβ,14
815037085,47141313,Διαμέρισμα 63 τ.μ.,Αθήνα (Ιλίσια),690.0,11,63 τ.μ.,,['4'],,,πριν από 2 ημέρες,2023-06-01,37.977173093028746,23.758632871175536,,517655.0,,https://www.xe.gr/property/d/enoikiaseis-katoikion/815037085/athhna-ilisia-690-63,Αθήνα,Ιλίσια,Διαμέρισμα,63.0,10.952380952380953,[4.0],4.0,1,2,ημ,2
814299130,47108682,Διαμέρισμα 64 τ.μ.,Αθήνα (Παγκράτι),600.0,9,64 τ.μ.,,['3'],1.0,1.0,πριν από 1 εβδομάδα,2023-06-01,37.96866643450921,23.74812798131943,,2144995.0,,https://www.xe.gr/property/d/enoikiaseis-katoikion/814299130/athhna-pagkrati-600-64,Αθήνα,Παγκράτι,Διαμέρισμα,64.0,9.375,[3.0],3.0,1,1,εβ,7
814925936,47136164,Διαμέρισμα 70 τ.μ.,Αθήνα (Παγκράτι),900.0,13,70 τ.μ.,1980.0,['2'],2.0,1.0,πριν από 3 ημέρες,2023-06-01,37.96706131292779,23.75463583820148,,875388.0,,https://www.xe.gr/property/d/enoikiaseis-katoikion/814925936/athhna-pagkrati-900-70,Αθήνα,Παγκράτι,Διαμέρισμα,70.0,12.857142857142858,[2.0],2.0,1,3,ημ,3
814756850,47130153,Διαμέρισμα 73 τ.μ.,Αθήνα (Χίλτον),650.0,9,73 τ.μ.,1970.0,['0'],2.0,1.0,πριν από 5 ημέρες,2023-06-01,37.977705,23.753436,Inovart Properties,1907235.0,,https://www.xe.gr/property/d/enoikiaseis-katoikion/814756850/athhna-chilton-650-73,Αθήνα,Χίλτον,Διαμέρισμα,73.0,8.904109589041095,[0.0],0.0,1,5,ημ,5
814127103,47100323,Διαμέρισμα 56 τ.μ.,Αθήνα (Κολιάτσου),450.0,8,56 τ.μ.,1966.0,['3'],1.0,1.0,πριν από 2 εβδομάδες,2023-06-01,38.01083075112764,23.733333865174103,,463519.0,,https://www.xe.gr/property/d/enoikiaseis-katoikion/814127103/athhna-koliatsoy-450-56,Αθήνα,Κολιάτσου,Διαμέρισμα,56.0,8.035714285714286,[3.0],3.0,1,2,εβ,14
814897021,47133747,Διαμέρισμα 35 τ.μ.,Αθήνα (Κάτω Πετράλωνα),380.0,11,35 τ.μ.,,['3'],,,πριν από 3 ημέρες,2023-06-01,37.97041797222733,23.70410926388649,,2267023.0,,https://www.xe.gr/property/d/enoikiaseis-katoikion/814897021/athhna-katw-petralwna-380-35,Αθήνα,Κάτω Πετράλωνα,Διαμέρισμα,35.0,10.857142857142858,[3.0],3.0,1,3,ημ,3
814054467,47096611,Διαμέρισμα 77 τ.μ.,Αθήνα (Πλατεία Αττικής),450.0,6,77 τ.μ.,1967.0,['3'],2.0,1.0,πριν από 2 εβδομάδες,2023-06-01,37.99369317485704,23.72503406674173,,1422721.0,,https://www.xe.gr/property/d/enoikiaseis-katoikion/814054467/athhna-plateia-attikhs-450-77,Αθήνα,Πλατεία Αττικής,Διαμέρισμα,77.0,5.8441558441558445,[3.0],3.0,1,2,εβ,14
814707488,47128401,Διαμέρισμα 55 τ.μ.,Αθήνα (Άγιος Θωμάς),500.0,9,55 τ.μ.,1980.0,['0.5'],1.0,1.0,πριν από 6 ημέρες,2023-06-01,37.981246,23.760359,Ground About Real Estate,2239726.0,,https://www.xe.gr/property/d/enoikiaseis-katoikion/814707488/athhna-agios-thwmas-500-55,Αθήνα,Άγιος Θωμάς,Διαμέρισμα,55.0,9.090909090909092,[0.5],0.5,1,6,ημ,6
814557783,47120375,Διαμέρισμα 115 τ.μ.,Αθήνα (Άγιος Ιωάννης),650.0,6,115 τ.μ.,1990.0,['1'],2.0,2.0,πριν από 1 εβδομάδα,2023-06-01,37.95829672944085,23.7355593325346,,1827553.0,,https://www.xe.gr/property/d/enoikiaseis-katoikion/814557783/athhna-agios-iwannhs-650-115,Αθήνα,Άγιος Ιωάννης,Διαμέρισμα,115.0,5.6521739130434785,[1.0],1.0,1,1,εβ,7
814292282,47107921,Διαμέρισμα 100 τ.μ.,Αθήνα (Άγιος Σώστης),850.0,9,100 τ.μ.,1980.0,['3'],2.0,1.0,πριν από 1 εβδομάδα,2023-06-01,37.95587163774508,23.71884914907871,,1871383.0,,https://www.xe.gr/property/d/enoikiaseis-katoikion/814292282/athhna-agios-swsths-850-100,Αθήνα,Άγιος Σώστης,Διαμέρισμα,100.0,8.5,[3.0],3.0,1,1,εβ,7
815020701,47139710,Διαμέρισμα 30 τ.μ.,Αθήνα (Λόφος Λαμπράκη),300.0,10,30 τ.μ.,,['0.5'],1.0,,πριν από 2 ημέρες,2023-06-01,37.960167,23.732866,,,,https://www.xe.gr/property/d/enoikiaseis-katoikion/815020701/athhna-lofos-lamprakh-300-30,Αθήνα,Λόφος Λαμπράκη,Διαμέρισμα,30.0,10.0,[0.5],0.5,1,2,ημ,2
814445453,47116334,Διαμέρισμα 32 τ.μ.,Αθήνα (Άγιος Ελευθέριος),320.0,10,32 τ.μ.,1975.0,['4'],1.0,1.0,πριν από 1 εβδομάδα,2023-06-01,38.01787297263766,23.728189081859984,,2019171.0,,https://www.xe.gr/property/d/enoikiaseis-katoikion/814445453/athhna-agios-eleytherios-320-32,Αθήνα,Άγιος Ελευθέριος,Διαμέρισμα,32.0,10.0,[4.0],4.0,1,1,εβ,7
813952038,47088533,Διαμέρισμα 56 τ.μ.,Αθήνα (Ηπείρου),580.0,10,56 τ.μ.,1970.0,['3'],1.0,1.0,πριν από 2 εβδομάδες,2023-06-01,37.99021870143649,23.72950500269635,,431854.0,,https://www.xe.gr/property/d/enoikiaseis-katoikion/813952038/athhna-hpeiroy-580-56,Αθήνα,Ηπείρου,Διαμέρισμα,56.0,10.357142857142858,[3.0],3.0,1,2,εβ,14
814829727,47133080,Διαμέρισμα 90 τ.μ.,Αθήνα (Βαρνάβα),600.0,7,90 τ.μ.,,['0.5'],,,πριν από 4 ημέρες,2023-06-01,37.9664759180432,23.742204249826017,,314505.0,,https://www.xe.gr/property/d/enoikiaseis-katoikion/814829727/athhna-varnava-600-90,Αθήνα,Βαρνάβα,Διαμέρισμα,90.0,6.666666666666667,[0.5],0.5,1,4,ημ,4
814865627,47133719,Διαμέρισμα 72 τ.μ.,Αθήνα (Τρεις Γέφυρες),700.0,10,72 τ.μ.,2010.0,['6'],2.0,,πριν από 3 ημέρες,2023-06-01,38.015472,23.724995,,2069420.0,,https://www.xe.gr/property/d/enoikiaseis-katoikion/814865627/athhna-treis-gefyres-700-72,Αθήνα,Τρεις Γέφυρες,Διαμέρισμα,72.0,9.722222222222221,[6.0],6.0,1,3,ημ,3
814505719,47118683,Διαμέρισμα 80 τ.μ.,Αθήνα (Πλατεία Αμερικής),550.0,7,80 τ.μ.,1969.0,['1'],2.0,1.0,πριν από 1 εβδομάδα,2023-06-01,38.003321,23.727729,Rizos Realty,1730441.0,455415.0,https://www.xe.gr/property/d/enoikiaseis-katoikion/814505719/athhna-plateia-amerikhs-550-80,Αθήνα,Πλατεία Αμερικής,Διαμέρισμα,80.0,6.875,[1.0],1.0,1,1,εβ,7
814894217,47133729,Διαμέρισμα 54 τ.μ.,Αθήνα (Παγκράτι),450.0,8,54 τ.μ.,,['1'],1.0,,πριν από 3 ημέρες,2023-06-01,37.96738091895793,23.748604442757003,,,,https://www.xe.gr/property/d/enoikiaseis-katoikion/814894217/athhna-pagkrati-450-54,Αθήνα,Παγκράτι,Διαμέρισμα,54.0,8.333333333333334,[1.0],1.0,1,3,ημ,3
813384158,46962828,Διαμέρισμα 78 τ.μ.,Αθήνα (Αλεπότρυπα),590.0,8,78 τ.μ.,1973.0,['1'],2.0,1.0,πριν από 2 μήνες,2023-06-01,38.009861,23.741393,Access Properties ,1956020.0,,https://www.xe.gr/property/d/enoikiaseis-katoikion/813384158/athhna-alepotrypa-590-78,Αθήνα,Αλεπότρυπα,Διαμέρισμα,78.0,7.564102564102564,[1.0],1.0,1,2,μή,60
814628165,47124025,Διαμέρισμα 23 τ.μ.,Αθήνα (Κυψέλη),290.0,13,23 τ.μ.,1957.0,['3'],1.0,,πριν από 7 ημέρες,2023-06-01,37.99693511803692,23.734928296559136,Πρόταση,218113.0,,https://www.xe.gr/property/d/enoikiaseis-katoikion/814628165/athhna-kypselh-290-23,Αθήνα,Κυψέλη,Διαμέρισμα,23.0,12.608695652173912,[3.0],3.0,1,7,ημ,7
814019025,47091741,Διαμέρισμα 72 τ.μ.,Αθήνα (Ακαδημία Πλάτωνος),470.0,7,72 τ.μ.,,['2'],2.0,1.0,πριν από 2 εβδομάδες,2023-06-01,37.99560207279088,23.709043425988032,,40959.0,,https://www.xe.gr/property/d/enoikiaseis-katoikion/814019025/athhna-akadhmia-platwnos-470-72,Αθήνα,Ακαδημία Πλάτωνος,Διαμέρισμα,72.0,6.527777777777778,[2.0],2.0,1,2,εβ,14
814899213,47134853,Διαμέρισμα 28 τ.μ.,Αθήνα (Άγιος Ελευθέριος),300.0,11,28 τ.μ.,,['1'],,,πριν από 3 ημέρες,2023-06-01,38.02173172943844,23.732344765353925,,,,https://www.xe.gr/property/d/enoikiaseis-katoikion/814899213/athhna-agios-eleytherios-300-28,Αθήνα,Άγιος Ελευθέριος,Διαμέρισμα,28.0,10.714285714285714,[1.0],1.0,1,3,ημ,3
810339215,46889752,Διαμέρισμα 54 τ.μ.,Αθήνα (Αλεπότρυπα),400.0,7,54 τ.μ.,1967.0,['1'],1.0,1.0,πριν από 2 μήνες,2023-06-01,38.011564077753775,23.74057168247344,Rent n Sale,1452371.0,,https://www.xe.gr/property/d/enoikiaseis-katoikion/810339215/athhna-alepotrypa-400-54,Αθήνα,Αλεπότρυπα,Διαμέρισμα,54.0,7.407407407407407,[1.0],1.0,1,2,μή,60
814604187,47123317,Διαμέρισμα 50 τ.μ.,Αθήνα (Ακαδημία Πλάτωνος),420.0,8,50 τ.μ.,2012.0,['1'],1.0,,πριν από 1 εβδομάδα,2023-06-01,37.994312959438645,23.71310293323144,Energy Real Estate,2203409.0,,https://www.xe.gr/property/d/enoikiaseis-katoikion/814604187/athhna-akadhmia-platwnos-420-50,Αθήνα,Ακαδημία Πλάτωνος,Διαμέρισμα,50.0,8.4,[1.0],1.0,1,1,εβ,7
814569549,47121078,Διαμέρισμα 34 τ.μ.,Αθήνα (Νεάπολη),340.0,10,34 τ.μ.,1972.0,['0'],1.0,1.0,πριν από 1 εβδομάδα,2023-06-01,37.9869894947078,23.750911262101997,Roi Mat Real Estate,2057357.0,,https://www.xe.gr/property/d/enoikiaseis-katoikion/814569549/athhna-neapolh-340-34,Αθήνα,Νεάπολη,Διαμέρισμα,34.0,10.0,[0.0],0.0,1,1,εβ,7
814503956,47118593,Διαμέρισμα 73 τ.μ.,Αθήνα (Παγκράτι),600.0,8,73 τ.μ.,1970.0,['2'],1.0,1.0,πριν από 1 εβδομάδα,2023-06-01,37.96806250531618,23.746827357686293,Art Real Estate,1616976.0,428867.0,https://www.xe.gr/property/d/enoikiaseis-katoikion/814503956/athhna-pagkrati-600-73,Αθήνα,Παγκράτι,Διαμέρισμα,73.0,8.219178082191782,[2.0],2.0,1,1,εβ,7
813958684,47089447,Διαμέρισμα 50 τ.μ.,Αθήνα (Σταθμός Λαρίσης),550.0,11,50 τ.μ.,1980.0,['2'],1.0,1.0,πριν από 2 εβδομάδες,2023-06-01,37.9938196787041,23.720364936616527,,1266000.0,,https://www.xe.gr/property/d/enoikiaseis-katoikion/813958684/athhna-stathmos-larishs-550-50,Αθήνα,Σταθμός Λαρίσης,Διαμέρισμα,50.0,11.0,[2.0],2.0,1,2,εβ,14
814627785,47124023,Διαμέρισμα 55 τ.μ.,Αθήνα (Νιρβάνα),400.0,7,55 τ.μ.,1978.0,['2'],1.0,1.0,πριν από 7 ημέρες,2023-06-01,38.00772849134664,23.726566147651944,Energy Real Estate,2203409.0,,https://www.xe.gr/property/d/enoikiaseis-katoikion/814627785/athhna-nirvana-400-55,Αθήνα,Νιρβάνα,Διαμέρισμα,55.0,7.2727272727272725,[2.0],2.0,1,7,ημ,7
815055172,47143291,Διαμέρισμα 50 τ.μ.,Αθήνα (Παγκράτι),990.0,20,50 τ.μ.,1970.0,['4'],1.0,1.0,πριν από 2 ημέρες,2023-06-01,37.967365,23.754135,BLUEGROUND REAL ESTATE,1220409.0,,https://www.xe.gr/property/d/enoikiaseis-katoikion/815055172/athhna-pagkrati-990-50,Αθήνα,Παγκράτι,Διαμέρισμα,50.0,19.8,[4.0],4.0,1,2,ημ,2
815011627,47139206,Διαμέρισμα 27 τ.μ.,Αθήνα (Γκύζη),350.0,13,27 τ.μ.,,['3'],,,πριν από 2 ημέρες,2023-06-01,37.990216126331184,23.74427649290869,,,,https://www.xe.gr/property/d/enoikiaseis-katoikion/815011627/athhna-gkyzh-350-27,Αθήνα,Γκύζη,Διαμέρισμα,27.0,12.962962962962964,[3.0],3.0,1,2,ημ,2
813942043,47087315,Διαμέρισμα 55 τ.μ.,Αθήνα (Παγκράτι),500.0,9,55 τ.μ.,1964.0,['1'],1.0,,πριν από 2 εβδομάδες,2023-06-01,37.97253,23.74796,One Real Estate,1168303.0,,https://www.xe.gr/property/d/enoikiaseis-katoikion/813942043/athhna-pagkrati-500-55,Αθήνα,Παγκράτι,Διαμέρισμα,55.0,9.090909090909092,[1.0],1.0,1,2,εβ,14
813426896,47051275,Διαμέρισμα 97 τ.μ.,Αθήνα (Πεδίον Άρεως),600.0,6,97 τ.μ.,1975.0,['1'],2.0,1.0,πριν από 3 εβδομάδες,2023-06-01,37.9964104861591,23.740216980992365,,856347.0,,https://www.xe.gr/property/d/enoikiaseis-katoikion/813426896/athhna-pedion-arews-600-97,Αθήνα,Πεδίον Άρεως,Διαμέρισμα,97.0,6.185567010309279,[1.0],1.0,1,3,εβ,21
812000155,46971896,Διαμέρισμα 51 τ.μ.,Αθήνα (Γκύζη),380.0,7,51 τ.μ.,1965.0,['0'],1.0,1.0,πριν από 2 μήνες,2023-06-01,37.99166331813731,23.74737459343781,RedsHellas,2026483.0,,https://www.xe.gr/property/d/enoikiaseis-katoikion/812000155/athhna-gkyzh-380-51,Αθήνα,Γκύζη,Διαμέρισμα,51.0,7.450980392156863,[0.0],0.0,1,2,μή,60
814613951,47123879,Διαμέρισμα 60 τ.μ.,Αθήνα (Κολωνάκι),1410.0,24,60 τ.μ.,1967.0,['2'],1.0,1.0,πριν από 7 ημέρες,2023-06-01,37.977748,23.749213,BLUEGROUND REAL ESTATE,1220409.0,,https://www.xe.gr/property/d/enoikiaseis-katoikion/814613951/athhna-kolwnaki-1410-60,Αθήνα,Κολωνάκι,Διαμέρισμα,60.0,23.5,[2.0],2.0,1,7,ημ,7
813398938,47048511,Διαμέρισμα 97 τ.μ.,Αθήνα (Κολωνός),600.0,6,97 τ.μ.,1974.0,['4'],2.0,2.0,πριν από 3 εβδομάδες,2023-06-01,37.99627917903094,23.7181595935757,,2045997.0,459979.0,https://www.xe.gr/property/d/enoikiaseis-katoikion/813398938/athhna-kolwnos-600-97,Αθήνα,Κολωνός,Διαμέρισμα,97.0,6.185567010309279,[4.0],4.0,1,3,εβ,21
814929429,47136446,Διαμέρισμα 75 τ.μ.,Αθήνα (Ιλίσια),750.0,10,75 τ.μ.,1980.0,['0'],2.0,1.0,πριν από 3 ημέρες,2023-06-01,37.97374077868714,23.755157042144035,,875388.0,,https://www.xe.gr/property/d/enoikiaseis-katoikion/814929429/athhna-ilisia-750-75,Αθήνα,Ιλίσια,Διαμέρισμα,75.0,10.0,[0.0],0.0,1,3,ημ,3
814189040,47103126,Διαμέρισμα 110 τ.μ.,Αθήνα (Πανόρμου),800.0,7,110 τ.μ.,1976.0,['1'],3.0,1.0,πριν από 2 εβδομάδες,2023-06-01,37.991496999627344,23.76333369203249,R.E.D. Hellas,531009.0,,https://www.xe.gr/property/d/enoikiaseis-katoikion/814189040/athhna-panormoy-800-110,Αθήνα,Πανόρμου,Διαμέρισμα,110.0,7.2727272727272725,[1.0],1.0,1,2,εβ,14
813859498,47080406,Διαμέρισμα 31 τ.μ.,Αθήνα (Κεραμεικός),450.0,15,31 τ.μ.,,['1'],1.0,1.0,πριν από 2 εβδομάδες,2023-06-01,37.98268013501752,23.713179750827667,,2128532.0,433086.0,https://www.xe.gr/property/d/enoikiaseis-katoikion/813859498/athhna-kerameikos-450-31,Αθήνα,Κεραμεικός,Διαμέρισμα,31.0,14.516129032258064,[1.0],1.0,1,2,εβ,14
814236010,47105279,Διαμέρισμα 55 τ.μ.,Αθήνα (Πλατεία Αττικής),420.0,8,55 τ.μ.,,['2'],1.0,1.0,πριν από 1 εβδομάδα,2023-06-01,37.999050750134494,23.72149732400523,Home Market,368946.0,,https://www.xe.gr/property/d/enoikiaseis-katoikion/814236010/athhna-plateia-attikhs-420-55,Αθήνα,Πλατεία Αττικής,Διαμέρισμα,55.0,7.636363636363637,[2.0],2.0,1,1,εβ,7
784486113,45677379,Διαμέρισμα 75 τ.μ.,Αθήνα (Πλατεία Αττικής),650.0,9,75 τ.μ.,1965.0,['4'],2.0,1.0,πριν από 2 μήνες,2023-06-01,37.995457,23.724503,,392985.0,,https://www.xe.gr/property/d/enoikiaseis-katoikion/784486113/athhna-plateia-attikhs-650-75,Αθήνα,Πλατεία Αττικής,Διαμέρισμα,75.0,8.666666666666666,[4.0],4.0,1,2,μή,60
814660772,47125261,Διαμέρισμα 50 τ.μ.,Αθήνα (Πεδίον Άρεως),380.0,8,50 τ.μ.,1970.0,['-0.5'],1.0,1.0,πριν από 6 ημέρες,2023-06-01,37.9938200777577,23.732907974101835,Golden Home,616129.0,,https://www.xe.gr/property/d/enoikiaseis-katoikion/814660772/athhna-pedion-arews-380-50,Αθήνα,Πεδίον Άρεως,Διαμέρισμα,50.0,7.6,[-0.5],-0.5,1,6,ημ,6
814677174,47125965,Διαμέρισμα 40 τ.μ.,Αθήνα (Νέα Κυψέλη),360.0,9,40 τ.μ.,2023.0,"['0', '0.5']",1.0,1.0,πριν από 6 ημέρες,2023-06-01,38.00144575787784,23.745130698794156,Art Real Estate,1616976.0,,https://www.xe.gr/property/d/enoikiaseis-katoikion/814677174/athhna-nea-kypselh-360-40,Αθήνα,Νέα Κυψέλη,Διαμέρισμα,40.0,9.0,"[0.0, 0.5]",0.0,2,6,ημ,6
813835097,47077776,Διαμέρισμα 96 τ.μ.,Αθήνα (Τρεις Γέφυρες),600.0,6,96 τ.μ.,1980.0,['1'],3.0,1.0,πριν από 2 εβδομάδες,2023-06-01,38.015097,23.727267,Τσαούσης - Σταυρόπουλος,215073.0,,https://www.xe.gr/property/d/enoikiaseis-katoikion/813835097/athhna-treis-gefyres-600-96,Αθήνα,Τρεις Γέφυρες,Διαμέρισμα,96.0,6.25,[1.0],1.0,1,2,εβ,14
814609815,47123766,Διαμέρισμα 77 τ.μ.,Αθήνα (Πεδίον Άρεως),500.0,6,77 τ.μ.,1966.0,['1'],2.0,1.0,πριν από 7 ημέρες,2023-06-01,37.99553972277568,23.736380771590845,Ιωάννης Καλυβας,2182762.0,,https://www.xe.gr/property/d/enoikiaseis-katoikion/814609815/athhna-pedion-arews-500-77,Αθήνα,Πεδίον Άρεως,Διαμέρισμα,77.0,6.4935064935064934,[1.0],1.0,1,7,ημ,7
799105196,46329822,Διαμέρισμα 110 τ.μ.,Αθήνα (Κολωνάκι),1750.0,16,110 τ.μ.,,['1'],3.0,1.0,πριν από 2 μήνες,2023-06-01,37.979642750122274,23.739631980914552,,509336.0,,https://www.xe.gr/property/d/enoikiaseis-katoikion/799105196/athhna-kolwnaki-1750-110,Αθήνα,Κολωνάκι,Διαμέρισμα,110.0,15.909090909090908,[1.0],1.0,1,2,μή,60
813955384,47089096,Διαμέρισμα 125 τ.μ.,Αθήνα (Ιλίσια),1400.0,11,125 τ.μ.,1965.0,['3'],3.0,2.0,πριν από 2 εβδομάδες,2023-06-01,37.97724,23.756359,Hellenic Realtor Service,552273.0,,https://www.xe.gr/property/d/enoikiaseis-katoikion/813955384/athhna-ilisia-1400-125,Αθήνα,Ιλίσια,Διαμέρισμα,125.0,11.2,[3.0],3.0,1,2,εβ,14
813945471,47087764,Διαμέρισμα 52 τ.μ.,Αθήνα (Κάτω Πατήσια),350.0,7,52 τ.μ.,1967.0,['0.5'],1.0,1.0,πριν από 2 εβδομάδες,2023-06-01,38.00978816584223,23.725948786508283,Golden Home,616129.0,,https://www.xe.gr/property/d/enoikiaseis-katoikion/813945471/athhna-katw-pathsia-350-52,Αθήνα,Κάτω Πατήσια,Διαμέρισμα,52.0,6.730769230769231,[0.5],0.5,1,2,εβ,14
814133532,47101224,Διαμέρισμα 85 τ.μ.,Αθήνα (Κυψέλη),700.0,8,85 τ.μ.,,['5'],2.0,1.0,πριν από 2 εβδομάδες,2023-06-01,38.00043768475912,23.73981751365135,,2263844.0,452942.0,https://www.xe.gr/property/d/enoikiaseis-katoikion/814133532/athhna-kypselh-700-85,Αθήνα,Κυψέλη,Διαμέρισμα,85.0,8.235294117647058,[5.0],5.0,1,2,εβ,14
815182846,47149089,Διαμέρισμα 72 τ.μ.,Αθήνα (Πανόρμου),800.0,11,72 τ.μ.,1975.0,['2'],1.0,1.0,πριν από 10 ώρες,2023-06-01,37.99376,23.767039,VIProperty,2203117.0,,https://www.xe.gr/property/d/enoikiaseis-katoikion/815182846/athhna-panormoy-800-72,Αθήνα,Πανόρμου,Διαμέρισμα,72.0,11.11111111111111,[2.0],2.0,1,10,ώρ,0
813671461,47067409,Διαμέρισμα 26 τ.μ.,Αθήνα (Ιπποκράτους),650.0,25,26 τ.μ.,1970.0,['1'],,1.0,πριν από 3 εβδομάδες,2023-06-01,37.982746,23.737041,BLUEGROUND REAL ESTATE,1220409.0,,https://www.xe.gr/property/d/enoikiaseis-katoikion/813671461/athhna-ippokratoys-650-26,Αθήνα,Ιπποκράτους,Διαμέρισμα,26.0,25.0,[1.0],1.0,1,3,εβ,21
814941025,47137392,Διαμέρισμα 55 τ.μ.,Αθήνα (Παγκράτι),420.0,8,55 τ.μ.,1975.0,['1'],1.0,1.0,πριν από 3 ημέρες,2023-06-01,37.96792399569527,23.749923084816714,Art Real Estate,1616976.0,,https://www.xe.gr/property/d/enoikiaseis-katoikion/814941025/athhna-pagkrati-420-55,Αθήνα,Παγκράτι,Διαμέρισμα,55.0,7.636363636363637,[1.0],1.0,1,3,ημ,3
814397124,47114007,Διαμέρισμα 77 τ.μ.,Αθήνα (Άγιος Λουκάς),500.0,6,77 τ.μ.,1965.0,['1'],2.0,1.0,πριν από 1 εβδομάδα,2023-06-01,38.01423717903051,23.735609497455105,Downtown Properties,1942079.0,454936.0,https://www.xe.gr/property/d/enoikiaseis-katoikion/814397124/athhna-agios-loykas-500-77,Αθήνα,Άγιος Λουκάς,Διαμέρισμα,77.0,6.4935064935064934,[1.0],1.0,1,1,εβ,7
815055186,47143298,Διαμέρισμα 45 τ.μ.,Αθήνα (Ιπποκράτους),1060.0,24,45 τ.μ.,1980.0,['1'],1.0,1.0,πριν από 2 ημέρες,2023-06-01,37.984826,23.741505,BLUEGROUND REAL ESTATE,1220409.0,,https://www.xe.gr/property/d/enoikiaseis-katoikion/815055186/athhna-ippokratoys-1060-45,Αθήνα,Ιπποκράτους,Διαμέρισμα,45.0,23.555555555555557,[1.0],1.0,1,2,ημ,2
814242972,47104767,Διαμέρισμα 71 τ.μ.,Αθήνα (Ελληνορώσων),750.0,11,71 τ.μ.,,['1'],2.0,,πριν από 2 εβδομάδες,2023-06-01,37.997665,23.772835,,,,https://www.xe.gr/property/d/enoikiaseis-katoikion/814242972/athhna-ellhnorwswn-750-71,Αθήνα,Ελληνορώσων,Διαμέρισμα,71.0,10.56338028169014,[1.0],1.0,1,2,εβ,14
813908541,47083566,Διαμέρισμα 35 τ.μ.,Αθήνα (Κεραμεικός),430.0,12,35 τ.μ.,1970.0,['0.5'],1.0,1.0,πριν από 2 εβδομάδες,2023-06-01,37.98231999839306,23.716901129459558,,454845.0,455216.0,https://www.xe.gr/property/d/enoikiaseis-katoikion/813908541/athhna-kerameikos-430-35,Αθήνα,Κεραμεικός,Διαμέρισμα,35.0,12.285714285714286,[0.5],0.5,1,2,εβ,14
712762974,43661199,Διαμέρισμα 240 τ.μ.,Αθήνα (Μοναστηράκι),4900.0,20,240 τ.μ.,1940.0,['1'],3.0,3.0,πριν από 2 μήνες,2023-06-01,37.97592438981969,23.72617610596045,,1380384.0,,https://www.xe.gr/property/d/enoikiaseis-katoikion/712762974/athhna-monasthraki-4900-240,Αθήνα,Μοναστηράκι,Διαμέρισμα,240.0,20.416666666666668,[1.0],1.0,1,2,μή,60
813957000,47089280,Διαμέρισμα 86 τ.μ.,Αθήνα (Άνω Κυψέλη),750.0,9,86 τ.μ.,2003.0,['3'],2.0,1.0,πριν από 2 εβδομάδες,2023-06-01,38.006278228965336,23.749737642177863,Maison,213738.0,,https://www.xe.gr/property/d/enoikiaseis-katoikion/813957000/athhna-anw-kypselh-750-86,Αθήνα,Άνω Κυψέλη,Διαμέρισμα,86.0,8.720930232558139,[3.0],3.0,1,2,εβ,14
813316189,47042778,Διαμέρισμα 67 τ.μ.,Αθήνα (Κυψέλη),570.0,9,67 τ.μ.,1969.0,['3'],2.0,1.0,πριν από 3 εβδομάδες,2023-06-01,37.99858044213471,23.74122561449668,,709973.0,447135.0,https://www.xe.gr/property/d/enoikiaseis-katoikion/813316189/athhna-kypselh-570-67,Αθήνα,Κυψέλη,Διαμέρισμα,67.0,8.507462686567164,[3.0],3.0,1,3,εβ,21
814285298,47107688,Διαμέρισμα 52 τ.μ.,Αθήνα (Γκύζη),650.0,13,52 τ.μ.,1962.0,['5'],1.0,1.0,πριν από 1 εβδομάδα,2023-06-01,37.990754,23.74457,Plasis Real Estate + Development,1905993.0,451420.0,https://www.xe.gr/property/d/enoikiaseis-katoikion/814285298/athhna-gkyzh-650-52,Αθήνα,Γκύζη,Διαμέρισμα,52.0,12.5,[5.0],5.0,1,1,εβ,7
814694150,47126954,Διαμέρισμα 75 τ.μ.,Αθήνα (Χίλτον),1120.0,15,75 τ.μ.,1975.0,['2'],2.0,1.0,πριν από 6 ημέρες,2023-06-01,37.976957,23.753229,BLUEGROUND REAL ESTATE,1220409.0,,https://www.xe.gr/property/d/enoikiaseis-katoikion/814694150/athhna-chilton-1120-75,Αθήνα,Χίλτον,Διαμέρισμα,75.0,14.933333333333334,[2.0],2.0,1,6,ημ,6
814872857,47133831,Διαμέρισμα 40 τ.μ.,Αθήνα (Πλατεία Κάνιγγος),350.0,9,40 τ.μ.,,['-0.5'],1.0,,πριν από 3 ημέρες,2023-06-01,37.98356579147485,23.734289732618063,Κτηματομεσιτικές Επιχειρήσεις Φούκη,252614.0,,https://www.xe.gr/property/d/enoikiaseis-katoikion/814872857/athhna-plateia-kaniggos-350-40,Αθήνα,Πλατεία Κάνιγγος,Διαμέρισμα,40.0,8.75,[-0.5],-0.5,1,3,ημ,3
814002542,47091691,Διαμέρισμα 84 τ.μ.,Αθήνα (Άγιος Αρτέμιος),600.0,7,84 τ.μ.,1975.0,['3'],1.0,1.0,πριν από 2 εβδομάδες,2023-06-01,37.96128344213712,23.74399628342057,Verum Real Estate Services,1541730.0,,https://www.xe.gr/property/d/enoikiaseis-katoikion/814002542/athhna-agios-artemios-600-84,Αθήνα,Άγιος Αρτέμιος,Διαμέρισμα,84.0,7.142857142857143,[3.0],3.0,1,2,εβ,14
814245307,47104980,Διαμέρισμα 35 τ.μ.,Αθήνα (Άγιος Παντελεήμονας),300.0,9,35 τ.μ.,,['1'],1.0,,πριν από 1 εβδομάδα,2023-06-01,37.99721,23.72473,,,,https://www.xe.gr/property/d/enoikiaseis-katoikion/814245307/athhna-agios-pantelehmonas-300-35,Αθήνα,Άγιος Παντελεήμονας,Διαμέρισμα,35.0,8.571428571428571,[1.0],1.0,1,1,εβ,7
813756172,47070515,Διαμέρισμα 100 τ.μ.,Αθήνα (Λόφος Σκουζέ),600.0,6,100 τ.μ.,1974.0,['4'],1.0,1.0,πριν από 2 εβδομάδες,2023-06-01,38.00054977549432,23.71841143525825,,1373771.0,,https://www.xe.gr/property/d/enoikiaseis-katoikion/813756172/athhna-lofos-skoyze-600-100,Αθήνα,Λόφος Σκουζέ,Διαμέρισμα,100.0,6.0,[4.0],4.0,1,2,εβ,14
797098911,46228770,Διαμέρισμα 65 τ.μ.,Αθήνα (Ιπποκράτειο),580.0,9,65 τ.μ.,,['2'],,,πριν από 2 μήνες,2023-06-01,37.98543557663145,23.76294205367589,,1975391.0,,https://www.xe.gr/property/d/enoikiaseis-katoikion/797098911/athhna-ippokrateio-580-65,Αθήνα,Ιπποκράτειο,Διαμέρισμα,65.0,8.923076923076923,[2.0],2.0,1,2,μή,60
814358666,47111282,Διαμέρισμα 110 τ.μ.,Αθήνα (Μετς),800.0,7,110 τ.μ.,,['1'],3.0,,πριν από 1 εβδομάδα,2023-06-01,37.96600122896696,23.736256923356247,,,,https://www.xe.gr/property/d/enoikiaseis-katoikion/814358666/athhna-mets-800-110,Αθήνα,Μετς,Διαμέρισμα,110.0,7.2727272727272725,[1.0],1.0,1,1,εβ,7
813311916,47042397,Διαμέρισμα 85 τ.μ.,Αθήνα (Κολιάτσου),700.0,8,85 τ.μ.,,['0.5'],2.0,1.0,πριν από 3 εβδομάδες,2023-06-01,38.01137407545354,23.73878986177584,,1648402.0,459313.0,https://www.xe.gr/property/d/enoikiaseis-katoikion/813311916/athhna-koliatsoy-700-85,Αθήνα,Κολιάτσου,Διαμέρισμα,85.0,8.235294117647058,[0.5],0.5,1,3,εβ,21
814710090,47127069,Διαμέρισμα 90 τ.μ.,Αθήνα (Εξάρχεια),830.0,9,90 τ.μ.,1972.0,['2'],2.0,1.0,πριν από 6 ημέρες,2023-06-01,37.984700301287184,23.733563098532738,PRO Realtor,1950638.0,451589.0,https://www.xe.gr/property/d/enoikiaseis-katoikion/814710090/athhna-exarcheia-830-90,Αθήνα,Εξάρχεια,Διαμέρισμα,90.0,9.222222222222221,[2.0],2.0,1,6,ημ,6
813864143,47081239,Διαμέρισμα 30 τ.μ.,Αθήνα (Λόφος Στρέφη),440.0,15,30 τ.μ.,,['3'],1.0,1.0,πριν από 2 εβδομάδες,2023-06-01,37.99005191309352,23.73915861936344,,2263898.0,,https://www.xe.gr/property/d/enoikiaseis-katoikion/813864143/athhna-lofos-strefh-440-30,Αθήνα,Λόφος Στρέφη,Διαμέρισμα,30.0,14.666666666666666,[3.0],3.0,1,2,εβ,14
813852926,47079470,Διαμέρισμα 108 τ.μ.,Αθήνα (Κυψέλη),700.0,6,108 τ.μ.,,['5'],2.0,1.0,πριν από 2 εβδομάδες,2023-06-01,38.00095238563125,23.738170225393024,,2262086.0,435699.0,https://www.xe.gr/property/d/enoikiaseis-katoikion/813852926/athhna-kypselh-700-108,Αθήνα,Κυψέλη,Διαμέρισμα,108.0,6.481481481481482,[5.0],5.0,1,2,εβ,14
814347402,47107294,Διαμέρισμα 45 τ.μ.,Αθήνα (Μεταξουργείο),300.0,7,45 τ.μ.,,['4'],1.0,,πριν από 1 εβδομάδα,2023-06-01,37.98441778810341,23.71799168184586,,,,https://www.xe.gr/property/d/enoikiaseis-katoikion/814347402/athhna-metaxoyrgeio-300-45,Αθήνα,Μεταξουργείο,Διαμέρισμα,45.0,6.666666666666667,[4.0],4.0,1,1,εβ,7
813760319,47072800,Διαμέρισμα 100 τ.μ.,Αθήνα (Εξάρχεια),700.0,7,100 τ.μ.,,['1'],2.0,1.0,πριν από 2 εβδομάδες,2023-06-01,37.98856319037491,23.73569159283253,,2262086.0,,https://www.xe.gr/property/d/enoikiaseis-katoikion/813760319/athhna-exarcheia-700-100,Αθήνα,Εξάρχεια,Διαμέρισμα,100.0,7.0,[1.0],1.0,1,2,εβ,14
813796542,47075736,Διαμέρισμα 40 τ.μ.,Αθήνα (Νέα Κυψέλη),300.0,8,40 τ.μ.,1975.0,['-0.5'],1.0,1.0,πριν από 2 εβδομάδες,2023-06-01,38.00255,23.74831,One Real Estate,1168303.0,,https://www.xe.gr/property/d/enoikiaseis-katoikion/813796542/athhna-nea-kypselh-300-40,Αθήνα,Νέα Κυψέλη,Διαμέρισμα,40.0,7.5,[-0.5],-0.5,1,2,εβ,14
815193011,47149607,Διαμέρισμα 97 τ.μ.,Αθήνα (Άνω Κυψέλη),730.0,8,97 τ.μ.,1973.0,['3'],3.0,2.0,πριν από 9 ώρες,2023-06-01,38.007522,23.737878,Infocasa,219757.0,,https://www.xe.gr/property/d/enoikiaseis-katoikion/815193011/athhna-anw-kypselh-730-97,Αθήνα,Άνω Κυψέλη,Διαμέρισμα,97.0,7.525773195876289,[3.0],3.0,1,9,ώρ,0
171489857,29929052,Διαμέρισμα 72 τ.μ.,Αθήνα (Αμπελόκηποι),600.0,8,72 τ.μ.,1972.0,['2'],1.0,1.0,πριν από 2 μήνες,2023-06-01,37.988742,23.766929,,911362.0,454141.0,https://www.xe.gr/property/d/enoikiaseis-katoikion/171489857/athhna-ampelokhpoi-600-72,Αθήνα,Αμπελόκηποι,Διαμέρισμα,72.0,8.333333333333334,[2.0],2.0,1,2,μή,60
812835511,47016234,Διαμέρισμα 23 τ.μ.,Αθήνα (Άγιος Νικόλαος),320.0,14,23 τ.μ.,1985.0,['0.5'],1.0,1.0,πριν από 4 εβδομάδες,2023-06-01,37.96961,23.7525,One Real Estate,1168303.0,,https://www.xe.gr/property/d/enoikiaseis-katoikion/812835511/athhna-agios-nikolaos-320-23,Αθήνα,Άγιος Νικόλαος,Διαμέρισμα,23.0,13.91304347826087,[0.5],0.5,1,4,εβ,28
812824374,47015445,Διαμέρισμα 71 τ.μ.,Αθήνα (Σεπόλια),400.0,6,71 τ.μ.,1971.0,['2'],1.0,1.0,πριν από 4 εβδομάδες,2023-06-01,38.002741787347055,23.71921996842816,Golden Home,616129.0,,https://www.xe.gr/property/d/enoikiaseis-katoikion/812824374/athhna-sepolia-400-71,Αθήνα,Σεπόλια,Διαμέρισμα,71.0,5.633802816901408,[2.0],2.0,1,4,εβ,28
814196421,47103395,Διαμέρισμα 70 τ.μ.,Αθήνα (Πολύγωνο),520.0,7,70 τ.μ.,,['2'],1.0,1.0,πριν από 2 εβδομάδες,2023-06-01,37.99731116075056,23.75564532282712,,2265002.0,,https://www.xe.gr/property/d/enoikiaseis-katoikion/814196421/athhna-polygwno-520-70,Αθήνα,Πολύγωνο,Διαμέρισμα,70.0,7.428571428571429,[2.0],2.0,1,2,εβ,14
814484063,47117557,Διαμέρισμα 63 τ.μ.,Αθήνα (Κυνοσάργους),455.0,7,63 τ.μ.,1974.0,"['0', '0.5']",2.0,,πριν από 1 εβδομάδα,2023-06-01,37.95458675113611,23.725170627619605,Κοτσαμπόπουλος Σταύρος,242609.0,,https://www.xe.gr/property/d/enoikiaseis-katoikion/814484063/athhna-kynosargoys-455-63,Αθήνα,Κυνοσάργους,Διαμέρισμα,63.0,7.222222222222222,"[0.0, 0.5]",0.0,2,1,εβ,7
813567840,47060565,Διαμέρισμα 50 τ.μ.,Αθήνα (Ακαδημία Πλάτωνος),400.0,8,50 τ.μ.,,['3'],1.0,,πριν από 3 εβδομάδες,2023-06-01,37.99513311803698,23.70940730814804,,2209701.0,,https://www.xe.gr/property/d/enoikiaseis-katoikion/813567840/athhna-akadhmia-platwnos-400-50,Αθήνα,Ακαδημία Πλάτωνος,Διαμέρισμα,50.0,8.0,[3.0],3.0,1,3,εβ,21
777119448,45448302,Διαμέρισμα 40 τ.μ.,Αθήνα (Άνω Πετράλωνα),350.0,9,40 τ.μ.,1973.0,['0.5'],,1.0,πριν από 2 μήνες,2023-06-01,37.9724587020755,23.712541862480887,Ανθρώπων Στέγη,1165691.0,,https://www.xe.gr/property/d/enoikiaseis-katoikion/777119448/athhna-anw-petralwna-350-40,Αθήνα,Άνω Πετράλωνα,Διαμέρισμα,40.0,8.75,[0.5],0.5,1,2,μή,60
814130209,47100786,Διαμέρισμα 80 τ.μ.,Αθήνα (Άγιος Νικόλαος),570.0,7,80 τ.μ.,1970.0,['5'],2.0,1.0,πριν από 2 εβδομάδες,2023-06-01,38.00535438964823,23.72853769659266,Golden Home,616129.0,,https://www.xe.gr/property/d/enoikiaseis-katoikion/814130209/athhna-agios-nikolaos-570-80,Αθήνα,Άγιος Νικόλαος,Διαμέρισμα,80.0,7.125,[5.0],5.0,1,2,εβ,14
525518134,38470529,Διαμέρισμα 26 τ.μ.,Αθήνα (Νέα Κυψέλη),250.0,10,26 τ.μ.,,['-0.5'],1.0,1.0,πριν από 2 μήνες,2023-06-01,37.99678736024632,23.744422028665376,,230827.0,,https://www.xe.gr/property/d/enoikiaseis-katoikion/525518134/athhna-nea-kypselh-250-26,Αθήνα,Νέα Κυψέλη,Διαμέρισμα,26.0,9.615384615384615,[-0.5],-0.5,1,2,μή,60
813080712,47031768,Διαμέρισμα 55 τ.μ.,Αθήνα (Κάτω Πετράλωνα),640.0,12,55 τ.μ.,1977.0,['0.5'],1.0,1.0,πριν από 4 εβδομάδες,2023-06-01,37.966213,23.707107,,1987302.0,451507.0,https://www.xe.gr/property/d/enoikiaseis-katoikion/813080712/athhna-katw-petralwna-640-55,Αθήνα,Κάτω Πετράλωνα,Διαμέρισμα,55.0,11.636363636363637,[0.5],0.5,1,4,εβ,28
814396568,47113876,Διαμέρισμα 55 τ.μ.,Αθήνα (Προφήτης Ηλίας),450.0,8,55 τ.μ.,1969.0,['3'],1.0,1.0,πριν από 1 εβδομάδα,2023-06-01,37.96313461080261,23.74649044843746,Art Real Estate,1616976.0,,https://www.xe.gr/property/d/enoikiaseis-katoikion/814396568/athhna-profhths-hlias-450-55,Αθήνα,Προφήτης Ηλίας,Διαμέρισμα,55.0,8.181818181818182,[3.0],3.0,1,1,εβ,7
814929318,47136661,Διαμέρισμα 142 τ.μ.,Αθήνα (Φιλοπάππου),1600.0,11,142 τ.μ.,1956.0,['4'],2.0,2.0,πριν από 3 ημέρες,2023-06-01,37.967447318137374,23.717097641079263,Golden Home,616129.0,,https://www.xe.gr/property/d/enoikiaseis-katoikion/814929318/athhna-filopappoy-1600-142,Αθήνα,Φιλοπάππου,Διαμέρισμα,142.0,11.267605633802816,[4.0],4.0,1,3,ημ,3
813796253,47075731,Διαμέρισμα 80 τ.μ.,Αθήνα (Παγκράτι),850.0,11,80 τ.μ.,1961.0,['5'],2.0,1.0,πριν από 2 εβδομάδες,2023-06-01,37.9702885673993,23.74873865532377,Regina Faraclas & Associates Real Estate,1698684.0,,https://www.xe.gr/property/d/enoikiaseis-katoikion/813796253/athhna-pagkrati-850-80,Αθήνα,Παγκράτι,Διαμέρισμα,80.0,10.625,[5.0],5.0,1,2,εβ,14
814376475,47111712,Διαμέρισμα 91 τ.μ.,Αθήνα (Πανόρμου),1300.0,14,91 τ.μ.,,['2'],2.0,,πριν από 1 εβδομάδα,2023-06-01,37.99284,23.76419,,,,https://www.xe.gr/property/d/enoikiaseis-katoikion/814376475/athhna-panormoy-1300-91,Αθήνα,Πανόρμου,Διαμέρισμα,91.0,14.285714285714286,[2.0],2.0,1,1,εβ,7
814606397,47123585,Διαμέρισμα 57 τ.μ.,Αθήνα (Προμπονά),500.0,9,57 τ.μ.,1984.0,['0'],1.0,1.0,πριν από 7 ημέρες,2023-06-01,38.03053302928958,23.738341527154777,Golden Home,616129.0,452546.0,https://www.xe.gr/property/d/enoikiaseis-katoikion/814606397/athhna-prompona-500-57,Αθήνα,Προμπονά,Διαμέρισμα,57.0,8.771929824561404,[0.0],0.0,1,7,ημ,7
813755316,47015613,Διαμέρισμα 125 τ.μ.,Αθήνα (Παγκράτι),700.0,6,125 τ.μ.,1963.0,['3'],3.0,1.0,πριν από 4 εβδομάδες,2023-06-01,37.966038,23.751412,,1365782.0,,https://www.xe.gr/property/d/enoikiaseis-katoikion/813755316/athhna-pagkrati-700-125,Αθήνα,Παγκράτι,Διαμέρισμα,125.0,5.6,[3.0],3.0,1,4,εβ,28
810984917,46923577,Διαμέρισμα 38 τ.μ.,Αθήνα (Μπακνανά),350.0,9,38 τ.μ.,1980.0,['0.5'],1.0,1.0,πριν από 2 μήνες,2023-06-01,37.95193529610874,23.72215512260427,,357408.0,,https://www.xe.gr/property/d/enoikiaseis-katoikion/810984917/athhna-mpaknana-350-38,Αθήνα,Μπακνανά,Διαμέρισμα,38.0,9.210526315789474,[0.5],0.5,1,2,μή,60
813554459,47059314,Διαμέρισμα 51 τ.μ.,Αθήνα (Εξάρχεια),590.0,12,51 τ.μ.,1968.0,['1'],1.0,1.0,πριν από 3 εβδομάδες,2023-06-01,37.98922943450896,23.735328056974677,,2254555.0,,https://www.xe.gr/property/d/enoikiaseis-katoikion/813554459/athhna-exarcheia-590-51,Αθήνα,Εξάρχεια,Διαμέρισμα,51.0,11.568627450980392,[1.0],1.0,1,3,εβ,21
813947975,47088083,Διαμέρισμα 85 τ.μ.,Αθήνα (Κουκάκι),850.0,10,85 τ.μ.,2003.0,['0'],2.0,1.0,πριν από 2 εβδομάδες,2023-06-01,37.96363617530096,23.720182516512622,Art Real Estate,1616976.0,429503.0,https://www.xe.gr/property/d/enoikiaseis-katoikion/813947975/athhna-koykaki-850-85,Αθήνα,Κουκάκι,Διαμέρισμα,85.0,10.0,[0.0],0.0,1,2,εβ,14
813657352,47066575,Διαμέρισμα 37 τ.μ.,Αθήνα (Παγκράτι),400.0,11,37 τ.μ.,,['0.5'],1.0,1.0,πριν από 3 εβδομάδες,2023-06-01,37.96750292032683,23.74524545215834,Τερζιαν Γκιουλα,2243109.0,,https://www.xe.gr/property/d/enoikiaseis-katoikion/813657352/athhna-pagkrati-400-37,Αθήνα,Παγκράτι,Διαμέρισμα,37.0,10.81081081081081,[0.5],0.5,1,3,εβ,21
814161460,47102264,Διαμέρισμα 33 τ.μ.,Αθήνα (Άνω Κυψέλη),300.0,9,33 τ.μ.,,['2'],,,πριν από 2 εβδομάδες,2023-06-01,38.003956,23.744707,,,,https://www.xe.gr/property/d/enoikiaseis-katoikion/814161460/athhna-anw-kypselh-300-33,Αθήνα,Άνω Κυψέλη,Διαμέρισμα,33.0,9.090909090909092,[2.0],2.0,1,2,εβ,14
815036610,47141285,Διαμέρισμα 250 τ.μ.,Αθήνα (Ρηγίλλης),5900.0,24,250 τ.μ.,1955.0,['3'],3.0,3.0,πριν από 2 ημέρες,2023-06-01,37.97391197619046,23.74259499335214,Papavlasopoulos Real Estate,383329.0,396270.0,https://www.xe.gr/property/d/enoikiaseis-katoikion/815036610/athhna-rhgillhs-5900-250,Αθήνα,Ρηγίλλης,Διαμέρισμα,250.0,23.6,[3.0],3.0,1,2,ημ,2
814664106,47125474,Διαμέρισμα 57 τ.μ.,Αθήνα (Κυψέλη),420.0,7,57 τ.μ.,,[],,,πριν από 6 ημέρες,2023-06-01,38.003340314833466,23.741370764361918,,,,https://www.xe.gr/property/d/enoikiaseis-katoikion/814664106/athhna-kypselh-420-57,Αθήνα,Κυψέλη,Διαμέρισμα,57.0,7.368421052631579,[],,0,6,ημ,6
814446153,47115013,Διαμέρισμα 32 τ.μ.,Αθήνα (Άγιος Αρτέμιος),350.0,11,32 τ.μ.,1989.0,['0.5'],,,πριν από 1 εβδομάδα,2023-06-01,37.960266,23.742493,,2265721.0,,https://www.xe.gr/property/d/enoikiaseis-katoikion/814446153/athhna-agios-artemios-350-32,Αθήνα,Άγιος Αρτέμιος,Διαμέρισμα,32.0,10.9375,[0.5],0.5,1,1,εβ,7
806928866,46711042,Διαμέρισμα 52 τ.μ.,Αθήνα (Λυκαβηττός),700.0,13,52 τ.μ.,1972.0,['-0.5'],1.0,1.0,πριν από 2 μήνες,2023-06-01,37.986365,23.750663,Rokanas Real Estate,32628.0,,https://www.xe.gr/property/d/enoikiaseis-katoikion/806928866/athhna-lykavhttos-700-52,Αθήνα,Λυκαβηττός,Διαμέρισμα,52.0,13.461538461538462,[-0.5],-0.5,1,2,μή,60
814105085,47092112,Διαμέρισμα 20 τ.μ.,Αθήνα (Κουντουριώτικα),230.0,12,20 τ.μ.,,['0.5'],,,πριν από 2 εβδομάδες,2023-06-01,37.989075,23.752964,,,,https://www.xe.gr/property/d/enoikiaseis-katoikion/814105085/athhna-koyntoyriwtika-230-20,Αθήνα,Κουντουριώτικα,Διαμέρισμα,20.0,11.5,[0.5],0.5,1,2,εβ,14
810606305,46903315,Διαμέρισμα 30 τ.μ.,Αθήνα (Χίλτον),600.0,20,30 τ.μ.,1980.0,['6'],1.0,1.0,πριν από 2 μήνες,2023-06-01,37.97662215442544,23.75250293339821,,2252236.0,,https://www.xe.gr/property/d/enoikiaseis-katoikion/810606305/athhna-chilton-600-30,Αθήνα,Χίλτον,Διαμέρισμα,30.0,20.0,[6.0],6.0,1,2,μή,60
814123941,47100049,Διαμέρισμα 90 τ.μ.,Αθήνα (Σταθμός Λαρίσης),750.0,8,90 τ.μ.,1976.0,['5'],2.0,1.0,πριν από 2 εβδομάδες,2023-06-01,37.99770988201668,23.72074848956447,14 Real Estate,2206897.0,,https://www.xe.gr/property/d/enoikiaseis-katoikion/814123941/athhna-stathmos-larishs-750-90,Αθήνα,Σταθμός Λαρίσης,Διαμέρισμα,90.0,8.333333333333334,[5.0],5.0,1,2,εβ,14
811111736,46931748,Διαμέρισμα 55 τ.μ.,Αθήνα (Άγιος Παντελεήμονας),450.0,8,55 τ.μ.,1965.0,"['0', '0.5']",2.0,1.0,πριν από 2 μήνες,2023-06-01,37.99874468476025,23.727703561656647,,2067284.0,459980.0,https://www.xe.gr/property/d/enoikiaseis-katoikion/811111736/athhna-agios-pantelehmonas-450-55,Αθήνα,Άγιος Παντελεήμονας,Διαμέρισμα,55.0,8.181818181818182,"[0.0, 0.5]",0.0,2,2,μή,60
814554772,47111040,Διαμέρισμα 32 τ.μ.,Αθήνα (Κυψέλη),300.0,9,32 τ.μ.,,['2'],,,πριν από 1 εβδομάδα,2023-06-01,37.99911217585046,23.736417310101952,,,,https://www.xe.gr/property/d/enoikiaseis-katoikion/814554772/athhna-kypselh-300-32,Αθήνα,Κυψέλη,Διαμέρισμα,32.0,9.375,[2.0],2.0,1,1,εβ,7
806894452,46708231,Διαμέρισμα 50 τ.μ.,Αθήνα (Πλατεία Αττικής),380.0,8,50 τ.μ.,1970.0,['4'],1.0,2.0,πριν από 2 μήνες,2023-06-01,38.00159,23.72451,One Real Estate,1168303.0,,https://www.xe.gr/property/d/enoikiaseis-katoikion/806894452/athhna-plateia-attikhs-380-50,Αθήνα,Πλατεία Αττικής,Διαμέρισμα,50.0,7.6,[4.0],4.0,1,2,μή,60
814710081,47121265,Διαμέρισμα 110 τ.μ.,Αθήνα (Παγκράτι),2500.0,23,110 τ.μ.,1956.0,['6'],2.0,2.0,πριν από 1 εβδομάδα,2023-06-01,37.973760472353845,23.74302948772579,PRO Realtor,1950638.0,444655.0,https://www.xe.gr/property/d/enoikiaseis-katoikion/814710081/athhna-pagkrati-2500-110,Αθήνα,Παγκράτι,Διαμέρισμα,110.0,22.727272727272727,[6.0],6.0,1,1,εβ,7
814259721,47105221,Διαμέρισμα 35 τ.μ.,Αθήνα (Πλατεία Αμερικής),400.0,11,35 τ.μ.,2008.0,['6'],,,πριν από 1 εβδομάδα,2023-06-01,38.00094774794167,23.72945511521913,,2265124.0,,https://www.xe.gr/property/d/enoikiaseis-katoikion/814259721/athhna-plateia-amerikhs-400-35,Αθήνα,Πλατεία Αμερικής,Διαμέρισμα,35.0,11.428571428571429,[6.0],6.0,1,1,εβ,7
803924217,46540933,Διαμέρισμα 91 τ.μ.,Αθήνα (Λυκαβηττός),1000.0,11,91 τ.μ.,1976.0,['2'],2.0,1.0,πριν από 2 μήνες,2023-06-01,37.979876536043705,23.741366507259496,Rotex Real Estate,2043857.0,,https://www.xe.gr/property/d/enoikiaseis-katoikion/803924217/athhna-lykavhttos-1000-91,Αθήνα,Λυκαβηττός,Διαμέρισμα,91.0,10.989010989010989,[2.0],2.0,1,2,μή,60
813146598,47030486,Διαμέρισμα 26 τ.μ.,Αθήνα (Ιπποκράτους),290.0,11,26 τ.μ.,,['3'],1.0,,πριν από 4 εβδομάδες,2023-06-01,37.98681360656719,23.74182983447896,,1615074.0,,https://www.xe.gr/property/d/enoikiaseis-katoikion/813146598/athhna-ippokratoys-290-26,Αθήνα,Ιπποκράτους,Διαμέρισμα,26.0,11.153846153846153,[3.0],3.0,1,4,εβ,28
814106769,47077516,Διαμέρισμα 50 τ.μ.,Αθήνα (Θησείο),530.0,11,50 τ.μ.,,['1'],,,πριν από 2 εβδομάδες,2023-06-01,37.977413,23.722244,,,,https://www.xe.gr/property/d/enoikiaseis-katoikion/814106769/athhna-thhseio-530-50,Αθήνα,Θησείο,Διαμέρισμα,50.0,10.6,[1.0],1.0,1,2,εβ,14
813389057,47047327,Διαμέρισμα 125 τ.μ.,Αθήνα (Νέα Φιλοθέη),1200.0,10,125 τ.μ.,1980.0,['1'],2.0,1.0,πριν από 3 εβδομάδες,2023-06-01,37.99942320388162,23.76469254345642,Epsilon Team,302036.0,,https://www.xe.gr/property/d/enoikiaseis-katoikion/813389057/athhna-nea-filotheh-1200-125,Αθήνα,Νέα Φιλοθέη,Διαμέρισμα,125.0,9.6,[1.0],1.0,1,3,εβ,21
705433541,43448103,Διαμέρισμα 100 τ.μ.,Αθήνα (Βοτανικός),550.0,6,100 τ.μ.,,['2'],3.0,1.0,πριν από 2 μήνες,2023-06-01,37.98156288104492,23.711363047504072,,890770.0,,https://www.xe.gr/property/d/enoikiaseis-katoikion/705433541/athhna-votanikos-550-100,Αθήνα,Βοτανικός,Διαμέρισμα,100.0,5.5,[2.0],2.0,1,2,μή,60
813318804,47043166,Διαμέρισμα 35 τ.μ.,Αθήνα (Παγκράτι),400.0,11,35 τ.μ.,,['1'],1.0,1.0,πριν από 3 εβδομάδες,2023-06-01,37.96946606023873,23.745915093431112,,2222606.0,,https://www.xe.gr/property/d/enoikiaseis-katoikion/813318804/athhna-pagkrati-400-35,Αθήνα,Παγκράτι,Διαμέρισμα,35.0,11.428571428571429,[1.0],1.0,1,3,εβ,21
815238700,47151709,Διαμέρισμα 50 τ.μ.,Αθήνα (Πλατεία Αττικής),600.0,12,50 τ.μ.,1976.0,['3'],1.0,1.0,πριν από 2 ώρες,2023-06-01,37.99643949077396,23.72568951377716,,239073.0,,https://www.xe.gr/property/d/enoikiaseis-katoikion/815238700/athhna-plateia-attikhs-600-50,Αθήνα,Πλατεία Αττικής,Διαμέρισμα,50.0,12.0,[3.0],3.0,1,2,ώρ,0
809590243,46850528,Διαμέρισμα 80 τ.μ.,Αθήνα (Παγκράτι),700.0,9,80 τ.μ.,1979.0,['2'],1.0,1.0,πριν από 2 μήνες,2023-06-01,37.96694117487127,23.750141747903943,Art Real Estate,1616976.0,,https://www.xe.gr/property/d/enoikiaseis-katoikion/809590243/athhna-pagkrati-700-80,Αθήνα,Παγκράτι,Διαμέρισμα,80.0,8.75,[2.0],2.0,1,2,μή,60
813800526,47054418,Διαμέρισμα 25 τ.μ.,Αθήνα (Άγιος Ελευθέριος),250.0,10,25 τ.μ.,,['1'],1.0,,πριν από 3 εβδομάδες,2023-06-01,38.020145,23.729557,,,,https://www.xe.gr/property/d/enoikiaseis-katoikion/813800526/athhna-agios-eleytherios-250-25,Αθήνα,Άγιος Ελευθέριος,Διαμέρισμα,25.0,10.0,[1.0],1.0,1,3,εβ,21
814105010,47090444,Διαμέρισμα 32 τ.μ.,Αθήνα (Πεδίον Άρεως),370.0,12,32 τ.μ.,2007.0,['3'],1.0,,πριν από 2 εβδομάδες,2023-06-01,37.99069074794173,23.73994914442825,,1101170.0,,https://www.xe.gr/property/d/enoikiaseis-katoikion/814105010/athhna-pedion-arews-370-32,Αθήνα,Πεδίον Άρεως,Διαμέρισμα,32.0,11.5625,[3.0],3.0,1,2,εβ,14
806068718,46663985,Διαμέρισμα 85 τ.μ.,Αθήνα (Άγιος Θωμάς),1100.0,13,85 τ.μ.,1970.0,['1'],2.0,1.0,πριν από 2 μήνες,2023-06-01,37.981965,23.763507,BLUEGROUND REAL ESTATE,1220409.0,,https://www.xe.gr/property/d/enoikiaseis-katoikion/806068718/athhna-agios-thwmas-1100-85,Αθήνα,Άγιος Θωμάς,Διαμέρισμα,85.0,12.941176470588236,[1.0],1.0,1,2,μή,60
814582501,47121568,Διαμέρισμα 70 τ.μ.,Αθήνα (Θησείο),1000.0,14,70 τ.μ.,1975.0,['1'],2.0,1.0,πριν από 1 εβδομάδα,2023-06-01,37.97466581214535,23.716101893302778,Intercasa,230387.0,,https://www.xe.gr/property/d/enoikiaseis-katoikion/814582501/athhna-thhseio-1000-70,Αθήνα,Θησείο,Διαμέρισμα,70.0,14.285714285714286,[1.0],1.0,1,1,εβ,7
812005841,46972135,Διαμέρισμα 20 τ.μ.,Αθήνα (Χίλτον),450.0,23,20 τ.μ.,,['0'],1.0,1.0,πριν από 2 μήνες,2023-06-01,37.97673428106341,23.7527500822446,,1112655.0,,https://www.xe.gr/property/d/enoikiaseis-katoikion/812005841/athhna-chilton-450-20,Αθήνα,Χίλτον,Διαμέρισμα,20.0,22.5,[0.0],0.0,1,2,μή,60
814247103,47105918,Διαμέρισμα 74 τ.μ.,Αθήνα (Σταθμός Λαρίσης),500.0,7,74 τ.μ.,1974.0,['2'],2.0,1.0,πριν από 1 εβδομάδα,2023-06-01,37.99292,23.721331,Plasis Real Estate + Development,1905993.0,,https://www.xe.gr/property/d/enoikiaseis-katoikion/814247103/athhna-stathmos-larishs-500-74,Αθήνα,Σταθμός Λαρίσης,Διαμέρισμα,74.0,6.756756756756757,[2.0],2.0,1,1,εβ,7
813755248,47072562,Διαμέρισμα 100 τ.μ.,Αθήνα (Άγιος Παντελεήμονας),530.0,5,100 τ.μ.,1978.0,['1'],2.0,1.0,πριν από 2 εβδομάδες,2023-06-01,37.99837,23.729,One Real Estate,1168303.0,,https://www.xe.gr/property/d/enoikiaseis-katoikion/813755248/athhna-agios-pantelehmonas-530-100,Αθήνα,Άγιος Παντελεήμονας,Διαμέρισμα,100.0,5.3,[1.0],1.0,1,2,εβ,14
813353070,47041206,Διαμέρισμα 50 τ.μ.,Αθήνα (Προφήτης Ηλίας),550.0,11,50 τ.μ.,1979.0,['1'],1.0,1.0,πριν από 3 εβδομάδες,2023-06-01,37.964141228967016,23.74530193632753,PRO Realtor,1950638.0,,https://www.xe.gr/property/d/enoikiaseis-katoikion/813353070/athhna-profhths-hlias-550-50,Αθήνα,Προφήτης Ηλίας,Διαμέρισμα,50.0,11.0,[1.0],1.0,1,3,εβ,21
813830569,47072659,Διαμέρισμα 70 τ.μ.,Αθήνα (Άνω Πατήσια),620.0,9,70 τ.μ.,2003.0,['5'],2.0,1.0,πριν από 2 εβδομάδες,2023-06-01,38.0177200602153,23.737712268123875,PRO Realtor,1950638.0,438081.0,https://www.xe.gr/property/d/enoikiaseis-katoikion/813830569/athhna-anw-pathsia-620-70,Αθήνα,Άνω Πατήσια,Διαμέρισμα,70.0,8.857142857142858,[5.0],5.0,1,2,εβ,14
815039342,47141596,Διαμέρισμα 45 τ.μ.,Αθήνα (Ιπποκράτους),1000.0,22,45 τ.μ.,1978.0,['1'],2.0,1.0,πριν από 2 ημέρες,2023-06-01,37.98233,23.737379,Olympia Properties,1886936.0,,https://www.xe.gr/property/d/enoikiaseis-katoikion/815039342/athhna-ippokratoys-1000-45,Αθήνα,Ιπποκράτους,Διαμέρισμα,45.0,22.22222222222222,[1.0],1.0,1,2,ημ,2
814944792,47137669,Διαμέρισμα 65 τ.μ.,Αθήνα (Ιπποκράτους),1500.0,23,65 τ.μ.,1970.0,['1'],2.0,1.0,πριν από 3 ημέρες,2023-06-01,37.9822102810634,23.7365960756097,Golden Home,616129.0,,https://www.xe.gr/property/d/enoikiaseis-katoikion/814944792/athhna-ippokratoys-1500-65,Αθήνα,Ιπποκράτους,Διαμέρισμα,65.0,23.076923076923077,[1.0],1.0,1,3,ημ,3
795710962,46154800,Διαμέρισμα 70 τ.μ.,Αθήνα (Χίλτον),680.0,10,70 τ.μ.,1966.0,['1'],2.0,1.0,πριν από 2 μήνες,2023-06-01,37.97556103837477,23.752124470087765,,1116286.0,,https://www.xe.gr/property/d/enoikiaseis-katoikion/795710962/athhna-chilton-680-70,Αθήνα,Χίλτον,Διαμέρισμα,70.0,9.714285714285714,[1.0],1.0,1,2,μή,60
810375857,46891042,Διαμέρισμα 46 τ.μ.,Αθήνα (Κολιάτσου),450.0,10,46 τ.μ.,1960.0,['4'],1.0,,πριν από 2 μήνες,2023-06-01,38.0094807846934,23.73612707824748,,324277.0,459396.0,https://www.xe.gr/property/d/enoikiaseis-katoikion/810375857/athhna-koliatsoy-450-46,Αθήνα,Κολιάτσου,Διαμέρισμα,46.0,9.782608695652174,[4.0],4.0,1,2,μή,60
815101255,47145382,Διαμέρισμα 37 τ.μ.,Αθήνα (Ιπποκράτειο),500.0,14,37 τ.μ.,1970.0,['5'],1.0,1.0,πριν από 1 ημέρα,2023-06-01,37.98228,23.761103,Ground About Real Estate,2239726.0,,https://www.xe.gr/property/d/enoikiaseis-katoikion/815101255/athhna-ippokrateio-500-37,Αθήνα,Ιπποκράτειο,Διαμέρισμα,37.0,13.513513513513514,[5.0],5.0,1,1,ημ,1
811909694,46967281,Διαμέρισμα 110 τ.μ.,Αθήνα (Λυκαβηττός),2100.0,19,110 τ.μ.,1980.0,['2'],2.0,1.0,πριν από 2 μήνες,2023-06-01,37.981176,23.746117,,1440998.0,,https://www.xe.gr/property/d/enoikiaseis-katoikion/811909694/athhna-lykavhttos-2100-110,Αθήνα,Λυκαβηττός,Διαμέρισμα,110.0,19.09090909090909,[2.0],2.0,1,2,μή,60
815129951,47147028,Διαμέρισμα 50 τ.μ.,Αθήνα (Κολιάτσου),380.0,8,50 τ.μ.,1960.0,['0.5'],1.0,1.0,πριν από 1 ημέρα,2023-06-01,38.01053647235175,23.732952180574152,,208275.0,,https://www.xe.gr/property/d/enoikiaseis-katoikion/815129951/athhna-koliatsoy-380-50,Αθήνα,Κολιάτσου,Διαμέρισμα,50.0,7.6,[0.5],0.5,1,1,ημ,1
806135703,46667463,Διαμέρισμα 50 τ.μ.,Αθήνα (Άγιος Λουκάς),450.0,9,50 τ.μ.,,['1'],1.0,,πριν από 2 μήνες,2023-06-01,38.01475474616142,23.735830564357823,,107075.0,,https://www.xe.gr/property/d/enoikiaseis-katoikion/806135703/athhna-agios-loykas-450-50,Αθήνα,Άγιος Λουκάς,Διαμέρισμα,50.0,9.0,[1.0],1.0,1,2,μή,60
810416633,46894235,Διαμέρισμα 107 τ.μ.,Αθήνα (Χίλτον),1000.0,9,107 τ.μ.,1997.0,['2'],2.0,1.0,πριν από 2 μήνες,2023-06-01,37.977056922358486,23.75465638717649,Τhe Houses Real Estate,2163142.0,,https://www.xe.gr/property/d/enoikiaseis-katoikion/810416633/athhna-chilton-1000-107,Αθήνα,Χίλτον,Διαμέρισμα,107.0,9.345794392523365,[2.0],2.0,1,2,μή,60
813449908,47053254,Διαμέρισμα 48 τ.μ.,Αθήνα (Πλατεία Αμερικής),450.0,9,48 τ.μ.,,['3'],1.0,1.0,πριν από 3 εβδομάδες,2023-06-01,38.00401881574695,23.731042950125417,Γιαννάκου Κτηματομεσιτικό,213840.0,,https://www.xe.gr/property/d/enoikiaseis-katoikion/813449908/athhna-plateia-amerikhs-450-48,Αθήνα,Πλατεία Αμερικής,Διαμέρισμα,48.0,9.375,[3.0],3.0,1,3,εβ,21
813958368,47089416,Διαμέρισμα 120 τ.μ.,Αθήνα (Ιπποκράτους),1350.0,11,120 τ.μ.,1980.0,['5'],2.0,2.0,πριν από 2 εβδομάδες,2023-06-01,37.98514742115576,23.740618341295807,Epsilon Team,302036.0,458605.0,https://www.xe.gr/property/d/enoikiaseis-katoikion/813958368/athhna-ippokratoys-1350-120,Αθήνα,Ιπποκράτους,Διαμέρισμα,120.0,11.25,[5.0],5.0,1,2,εβ,14
812810848,47014549,Διαμέρισμα 75 τ.μ.,Αθήνα (Αμπελόκηποι),690.0,9,75 τ.μ.,1975.0,['1'],2.0,1.0,πριν από 4 εβδομάδες,2023-06-01,37.99048571419986,23.758954554381607,Golden Home,616129.0,,https://www.xe.gr/property/d/enoikiaseis-katoikion/812810848/athhna-ampelokhpoi-690-75,Αθήνα,Αμπελόκηποι,Διαμέρισμα,75.0,9.2,[1.0],1.0,1,4,εβ,28
813986209,47090576,Διαμέρισμα 48 τ.μ.,Αθήνα (Εξάρχεια),570.0,12,48 τ.μ.,,['1'],1.0,,πριν από 2 εβδομάδες,2023-06-01,37.98614860656718,23.737137832359508,,,,https://www.xe.gr/property/d/enoikiaseis-katoikion/813986209/athhna-exarcheia-570-48,Αθήνα,Εξάρχεια,Διαμέρισμα,48.0,11.875,[1.0],1.0,1,2,εβ,14
814357893,47111238,Διαμέρισμα 58 τ.μ.,Αθήνα (Παγκράτι),380.0,7,58 τ.μ.,,['-0.5'],1.0,,πριν από 1 εβδομάδα,2023-06-01,37.96892770858061,23.750189730956613,Τερζιαν Γκιουλα,2243109.0,,https://www.xe.gr/property/d/enoikiaseis-katoikion/814357893/athhna-pagkrati-380-58,Αθήνα,Παγκράτι,Διαμέρισμα,58.0,6.551724137931035,[-0.5],-0.5,1,1,εβ,7
815036537,47141270,Διαμέρισμα 140 τ.μ.,Αθήνα (Πλατεία Μαβίλη),1800.0,13,140 τ.μ.,1960.0,['4'],,1.0,πριν από 2 ημέρες,2023-06-01,37.983203,23.757801,Papavlasopoulos Real Estate,383329.0,,https://www.xe.gr/property/d/enoikiaseis-katoikion/815036537/athhna-plateia-mavilh-1800-140,Αθήνα,Πλατεία Μαβίλη,Διαμέρισμα,140.0,12.857142857142858,[4.0],4.0,1,2,ημ,2
811048351,46928351,Διαμέρισμα 95 τ.μ.,Αθήνα (Άγιος Λουκάς),850.0,9,95 τ.μ.,1965.0,['4'],2.0,2.0,πριν από 2 μήνες,2023-06-01,38.01546288201623,23.737633390879,,2077552.0,440516.0,https://www.xe.gr/property/d/enoikiaseis-katoikion/811048351/athhna-agios-loykas-850-95,Αθήνα,Άγιος Λουκάς,Διαμέρισμα,95.0,8.947368421052632,[4.0],4.0,1,2,μή,60
608353200,40451539,Διαμέρισμα 95 τ.μ.,Αθήνα (Παγκράτι),900.0,9,95 τ.μ.,1971.0,['1'],2.0,2.0,πριν από 2 μήνες,2023-06-01,37.969047360250194,23.75284266656985,,269325.0,,https://www.xe.gr/property/d/enoikiaseis-katoikion/608353200/athhna-pagkrati-900-95,Αθήνα,Παγκράτι,Διαμέρισμα,95.0,9.473684210526315,[1.0],1.0,1,2,μή,60
813010899,47027005,Διαμέρισμα 80 τ.μ.,Αθήνα (Πεδίον Άρεως),700.0,9,80 τ.μ.,1972.0,['4'],2.0,1.0,πριν από 4 εβδομάδες,2023-06-01,37.99506,23.73477,Τσαούσης - Σταυρόπουλος,215073.0,449665.0,https://www.xe.gr/property/d/enoikiaseis-katoikion/813010899/athhna-pedion-arews-700-80,Αθήνα,Πεδίον Άρεως,Διαμέρισμα,80.0,8.75,[4.0],4.0,1,4,εβ,28
815114118,47146141,Διαμέρισμα 78 τ.μ.,Αθήνα (Προφήτης Ηλίας),800.0,10,78 τ.μ.,1975.0,['3'],2.0,2.0,πριν από 1 ημέρα,2023-06-01,37.96597299839401,23.74865299226239,Golden Home,616129.0,459640.0,https://www.xe.gr/property/d/enoikiaseis-katoikion/815114118/athhna-profhths-hlias-800-78,Αθήνα,Προφήτης Ηλίας,Διαμέρισμα,78.0,10.256410256410257,[3.0],3.0,1,1,ημ,1
812866577,47018608,Μεζονέτα 150 τ.μ.,Αθήνα (Λυκαβηττός),1500.0,10,150 τ.μ.,1978.0,['3'],3.0,1.0,πριν από 4 εβδομάδες,2023-06-01,37.98566627874358,23.74567877829156,,198074.0,365674.0,https://www.xe.gr/property/d/enoikiaseis-katoikion/812866577/athhna-lykavhttos-1500-150,Αθήνα,Λυκαβηττός,Μεζονέτα,150.0,10.0,[3.0],3.0,1,4,εβ,28
813832834,47076033,Διαμέρισμα 65 τ.μ.,Αθήνα (Παγκράτι),430.0,7,65 τ.μ.,,['0'],1.0,,πριν από 2 εβδομάδες,2023-06-01,37.96963003856679,23.75187876475877,,,,https://www.xe.gr/property/d/enoikiaseis-katoikion/813832834/athhna-pagkrati-430-65,Αθήνα,Παγκράτι,Διαμέρισμα,65.0,6.615384615384615,[0.0],0.0,1,2,εβ,14
815067827,47143532,Διαμέρισμα 67 τ.μ.,Αθήνα (Σεπόλια),420.0,6,67 τ.μ.,1975.0,['4'],1.0,1.0,πριν από 1 ημέρα,2023-06-01,38.00579861079776,23.715894946186676,Art Real Estate,1616976.0,,https://www.xe.gr/property/d/enoikiaseis-katoikion/815067827/athhna-sepolia-420-67,Αθήνα,Σεπόλια,Διαμέρισμα,67.0,6.268656716417911,[4.0],4.0,1,1,ημ,1
815219565,47150543,Διαμέρισμα 45 τ.μ.,Αθήνα (Άγιος Νικόλαος),450.0,10,45 τ.μ.,,['4'],1.0,1.0,πριν από 6 ώρες,2023-06-01,38.00818708209832,23.733200929333076,Athenian Properties,225373.0,,https://www.xe.gr/property/d/enoikiaseis-katoikion/815219565/athhna-agios-nikolaos-450-45,Αθήνα,Άγιος Νικόλαος,Διαμέρισμα,45.0,10.0,[4.0],4.0,1,6,ώρ,0
815128946,47146930,Διαμέρισμα 128 τ.μ.,Αθήνα (Πεδίον Άρεως),950.0,7,128 τ.μ.,1960.0,['5'],2.0,2.0,πριν από 1 ημέρα,2023-06-01,37.99222509159741,23.73220107515821,,1738168.0,,https://www.xe.gr/property/d/enoikiaseis-katoikion/815128946/athhna-pedion-arews-950-128,Αθήνα,Πεδίον Άρεως,Διαμέρισμα,128.0,7.421875,[5.0],5.0,1,1,ημ,1
811984072,46970942,Διαμέρισμα 50 τ.μ.,Αθήνα (Κολωνάκι),700.0,14,50 τ.μ.,1970.0,['1'],1.0,1.0,πριν από 2 μήνες,2023-06-01,37.981681,23.739062,Τσαούσης - Σταυρόπουλος,215073.0,,https://www.xe.gr/property/d/enoikiaseis-katoikion/811984072/athhna-kolwnaki-700-50,Αθήνα,Κολωνάκι,Διαμέρισμα,50.0,14.0,[1.0],1.0,1,2,μή,60
815128902,47146921,Διαμέρισμα 70 τ.μ.,Αθήνα (Κυψέλη),580.0,8,70 τ.μ.,1968.0,['4'],2.0,1.0,πριν από 1 ημέρα,2023-06-01,38.00186817903081,23.740319563669612,Athenian Properties,225373.0,,https://www.xe.gr/property/d/enoikiaseis-katoikion/815128902/athhna-kypselh-580-70,Αθήνα,Κυψέλη,Διαμέρισμα,70.0,8.285714285714286,[4.0],4.0,1,1,ημ,1
813893662,47068787,Διαμέρισμα 37 τ.μ.,Αθήνα (Μεταξουργείο),380.0,10,37 τ.μ.,,['5'],,,πριν από 2 εβδομάδες,2023-06-01,37.9853567111504,23.719200432091373,,,,https://www.xe.gr/property/d/enoikiaseis-katoikion/813893662/athhna-metaxoyrgeio-380-37,Αθήνα,Μεταξουργείο,Διαμέρισμα,37.0,10.27027027027027,[5.0],5.0,1,2,εβ,14
809702207,46856911,Διαμέρισμα 120 τ.μ.,Αθήνα (Πλατεία Βάθης),650.0,5,120 τ.μ.,1963.0,['8'],3.0,2.0,πριν από 2 μήνες,2023-06-01,37.98648226025101,23.72695307492719,,586286.0,458703.0,https://www.xe.gr/property/d/enoikiaseis-katoikion/809702207/athhna-plateia-vathhs-650-120,Αθήνα,Πλατεία Βάθης,Διαμέρισμα,120.0,5.416666666666667,[8.0],8.0,1,2,μή,60
812144550,46976889,Διαμέρισμα 63 τ.μ.,Αθήνα (Άνω Πατήσια),500.0,8,63 τ.μ.,1970.0,['5'],2.0,1.0,πριν από 2 μήνες,2023-06-01,38.01767735202054,23.7334351818932,,2257438.0,,https://www.xe.gr/property/d/enoikiaseis-katoikion/812144550/athhna-anw-pathsia-500-63,Αθήνα,Άνω Πατήσια,Διαμέρισμα,63.0,7.936507936507937,[5.0],5.0,1,2,μή,60
797922084,46271362,Διαμέρισμα 57 τ.μ.,Αθήνα (Άνω Πατήσια),420.0,7,57 τ.μ.,,['0.5'],1.0,1.0,πριν από 2 μήνες,2023-06-01,38.017905,23.735617,,82177.0,,https://www.xe.gr/property/d/enoikiaseis-katoikion/797922084/athhna-anw-pathsia-420-57,Αθήνα,Άνω Πατήσια,Διαμέρισμα,57.0,7.368421052631579,[0.5],0.5,1,2,μή,60
813279327,47040000,Διαμέρισμα 125 τ.μ.,Αθήνα (Πλατεία Παπαδιαμάντη),700.0,6,125 τ.μ.,,['2'],3.0,1.0,πριν από 3 εβδομάδες,2023-06-01,38.01965397263669,23.739733035784635,Magginas Realestate,565238.0,,https://www.xe.gr/property/d/enoikiaseis-katoikion/813279327/athhna-plateia-papadiamanth-700-125,Αθήνα,Πλατεία Παπαδιαμάντη,Διαμέρισμα,125.0,5.6,[2.0],2.0,1,3,εβ,21
815149672,47147994,Διαμέρισμα 75 τ.μ.,Αθήνα (Παγκράτι),480.0,6,75 τ.μ.,1980.0,['2'],2.0,1.0,πριν από 24 ώρες,2023-06-01,37.96654750178858,23.75426708243031,GRB Home,1290479.0,,https://www.xe.gr/property/d/enoikiaseis-katoikion/815149672/athhna-pagkrati-480-75,Αθήνα,Παγκράτι,Διαμέρισμα,75.0,6.4,[2.0],2.0,1,24,ώρ,0
812029101,46972840,Διαμέρισμα 50 τ.μ.,Αθήνα (Άνω Πατήσια),420.0,8,50 τ.μ.,,['2'],1.0,1.0,πριν από 2 μήνες,2023-06-01,38.01653176700709,23.73397269769648,,1649884.0,,https://www.xe.gr/property/d/enoikiaseis-katoikion/812029101/athhna-anw-pathsia-420-50,Αθήνα,Άνω Πατήσια,Διαμέρισμα,50.0,8.4,[2.0],2.0,1,2,μή,60
815145892,47147721,Διαμέρισμα 59 τ.μ.,Αθήνα (Άνω Πατήσια),400.0,7,59 τ.μ.,,['2'],1.0,1.0,πριν από 1 ημέρα,2023-06-01,38.023037,23.737371,,1881864.0,,https://www.xe.gr/property/d/enoikiaseis-katoikion/815145892/athhna-anw-pathsia-400-59,Αθήνα,Άνω Πατήσια,Διαμέρισμα,59.0,6.779661016949152,[2.0],2.0,1,1,ημ,1
814686201,47126334,Διαμέρισμα 96 τ.μ.,Αθήνα (Ιπποκράτειο),1300.0,14,96 τ.μ.,1970.0,['3'],3.0,1.0,πριν από 6 ημέρες,2023-06-01,37.98250789666566,23.75961589952965,Golden Home,616129.0,,https://www.xe.gr/property/d/enoikiaseis-katoikion/814686201/athhna-ippokrateio-1300-96,Αθήνα,Ιπποκράτειο,Διαμέρισμα,96.0,13.541666666666666,[3.0],3.0,1,6,ημ,6
815152269,47148265,Διαμέρισμα 50 τ.μ.,Αθήνα (Κολιάτσου),530.0,11,50 τ.μ.,1977.0,['4'],2.0,1.0,πριν από 21 ώρες,2023-06-01,38.0108037754929,23.732892302310383,,1096124.0,,https://www.xe.gr/property/d/enoikiaseis-katoikion/815152269/athhna-koliatsoy-530-50,Αθήνα,Κολιάτσου,Διαμέρισμα,50.0,10.6,[4.0],4.0,1,21,ώρ,0
813353072,47041957,Διαμέρισμα 116 τ.μ.,Αθήνα (Α΄ Νεκροταφείο),1150.0,10,116 τ.μ.,1969.0,['2'],3.0,2.0,πριν από 3 εβδομάδες,2023-06-01,37.9658378048922,23.740076451572552,PRO Realtor,1950638.0,458646.0,https://www.xe.gr/property/d/enoikiaseis-katoikion/813353072/athhna-a-nekrotafeio-1150-116,Αθήνα,,Διαμέρισμα,116.0,9.913793103448276,[2.0],2.0,1,3,εβ,21
813662298,47066841,Διαμέρισμα 38 τ.μ.,Αθήνα (Μουσείο),500.0,13,38 τ.μ.,,['7'],1.0,1.0,πριν από 3 εβδομάδες,2023-06-01,37.98690489666567,23.73213490329894,,2244561.0,,https://www.xe.gr/property/d/enoikiaseis-katoikion/813662298/athhna-moyseio-500-38,Αθήνα,Μουσείο,Διαμέρισμα,38.0,13.157894736842104,[7.0],7.0,1,3,εβ,21
808093607,46778984,Διαμέρισμα 70 τ.μ.,Αθήνα (Νέα Κυψέλη),650.0,9,70 τ.μ.,1972.0,['1'],2.0,1.0,πριν από 2 μήνες,2023-06-01,37.998596,23.745663,,306961.0,424838.0,https://www.xe.gr/property/d/enoikiaseis-katoikion/808093607/athhna-nea-kypselh-650-70,Αθήνα,Νέα Κυψέλη,Διαμέρισμα,70.0,9.285714285714286,[1.0],1.0,1,2,μή,60
799319261,46337772,Διαμέρισμα 70 τ.μ.,Αθήνα (Κάτω Πετράλωνα),650.0,9,70 τ.μ.,1975.0,['1'],2.0,1.0,πριν από 2 μήνες,2023-06-01,37.970888505315074,23.70731229595602,PRO Realtor,1950638.0,,https://www.xe.gr/property/d/enoikiaseis-katoikion/799319261/athhna-katw-petralwna-650-70,Αθήνα,Κάτω Πετράλωνα,Διαμέρισμα,70.0,9.285714285714286,[1.0],1.0,1,2,μή,60
815181879,47149021,Διαμέρισμα 90 τ.μ.,Αθήνα (Βαρνάβα),600.0,7,90 τ.μ.,,['0.5'],,,πριν από 10 ώρες,2023-06-01,37.96578522896696,23.740754924862685,,314505.0,,https://www.xe.gr/property/d/enoikiaseis-katoikion/815181879/athhna-varnava-600-90,Αθήνα,Βαρνάβα,Διαμέρισμα,90.0,6.666666666666667,[0.5],0.5,1,10,ώρ,0
813291902,47040766,Διαμέρισμα 45 τ.μ.,Αθήνα (Ακαδημία Πλάτωνος),420.0,9,45 τ.μ.,,['1'],1.0,,πριν από 3 εβδομάδες,2023-06-01,37.99526464462029,23.71321503904725,,,,https://www.xe.gr/property/d/enoikiaseis-katoikion/813291902/athhna-akadhmia-platwnos-420-45,Αθήνα,Ακαδημία Πλάτωνος,Διαμέρισμα,45.0,9.333333333333334,[1.0],1.0,1,3,εβ,21
813939286,47086362,Διαμέρισμα 55 τ.μ.,Αθήνα (Άγιος Θωμάς),420.0,8,55 τ.μ.,,['2'],1.0,1.0,πριν από 2 εβδομάδες,2023-06-01,37.981739118037446,23.76236939425446,,390147.0,,https://www.xe.gr/property/d/enoikiaseis-katoikion/813939286/athhna-agios-thwmas-420-55,Αθήνα,Άγιος Θωμάς,Διαμέρισμα,55.0,7.636363636363637,[2.0],2.0,1,2,εβ,14
812845765,47015837,Διαμέρισμα 52 τ.μ.,Αθήνα (Νιρβάνα),460.0,9,52 τ.μ.,,['7'],1.0,1.0,πριν από 4 εβδομάδες,2023-06-01,38.003506,23.726582,,816834.0,,https://www.xe.gr/property/d/enoikiaseis-katoikion/812845765/athhna-nirvana-460-52,Αθήνα,Νιρβάνα,Διαμέρισμα,52.0,8.846153846153847,[7.0],7.0,1,4,εβ,28
815142601,47147571,Διαμέρισμα 68 τ.μ.,Αθήνα (Αγία Παρασκευή),400.0,6,68 τ.μ.,1970.0,['2'],2.0,1.0,πριν από 1 ημέρα,2023-06-01,38.01416977549242,23.72990125865389,,892280.0,,https://www.xe.gr/property/d/enoikiaseis-katoikion/815142601/athhna-agia-paraskeyh-400-68,Αθήνα,Αγία Παρασκευή,Διαμέρισμα,68.0,5.882352941176471,[2.0],2.0,1,1,ημ,1
804892209,46589458,Διαμέρισμα 98 τ.μ.,Αθήνα (Παγκράτι),750.0,8,98 τ.μ.,1968.0,['2'],2.0,2.0,πριν από 2 μήνες,2023-06-01,37.96840574794189,23.74450420783866,,1910409.0,400783.0,https://www.xe.gr/property/d/enoikiaseis-katoikion/804892209/athhna-pagkrati-750-98,Αθήνα,Παγκράτι,Διαμέρισμα,98.0,7.653061224489796,[2.0],2.0,1,2,μή,60
810563918,46901047,Διαμέρισμα 101 τ.μ.,Αθήνα (Γκύζη),670.0,7,101 τ.μ.,,['4'],3.0,1.0,πριν από 2 μήνες,2023-06-01,37.990665,23.750295,,1782197.0,,https://www.xe.gr/property/d/enoikiaseis-katoikion/810563918/athhna-gkyzh-670-101,Αθήνα,Γκύζη,Διαμέρισμα,101.0,6.633663366336633,[4.0],4.0,1,2,μή,60
808547499,46800728,Διαμέρισμα 112 τ.μ.,Αθήνα (Πλατεία Αμερικής),650.0,6,112 τ.μ.,,['2'],3.0,1.0,πριν από 2 μήνες,2023-06-01,38.00195311803675,23.72946926428212,Athenian Properties,225373.0,,https://www.xe.gr/property/d/enoikiaseis-katoikion/808547499/athhna-plateia-amerikhs-650-112,Αθήνα,Πλατεία Αμερικής,Διαμέρισμα,112.0,5.803571428571429,[2.0],2.0,1,2,μή,60
812878881,47019669,Διαμέρισμα 40 τ.μ.,Αθήνα (Παγκράτι),400.0,10,40 τ.μ.,1982.0,['0'],1.0,1.0,πριν από 4 εβδομάδες,2023-06-01,37.97088917177458,23.74454534988878,,58454.0,,https://www.xe.gr/property/d/enoikiaseis-katoikion/812878881/athhna-pagkrati-400-40,Αθήνα,Παγκράτι,Διαμέρισμα,40.0,10.0,[0.0],0.0,1,4,εβ,28
804382929,46551419,Διαμέρισμα 60 τ.μ.,Αθήνα (Κυψέλη),550.0,9,60 τ.μ.,1970.0,['1'],1.0,1.0,πριν από 2 μήνες,2023-06-01,38.00217520388159,23.74446255068229,PRO Realtor,1950638.0,,https://www.xe.gr/property/d/enoikiaseis-katoikion/804382929/athhna-kypselh-550-60,Αθήνα,Κυψέλη,Διαμέρισμα,60.0,9.166666666666666,[1.0],1.0,1,2,μή,60
812068485,46974286,Διαμέρισμα 70 τ.μ.,Αθήνα (Κυψέλη),480.0,7,70 τ.μ.,1960.0,['0'],2.0,1.0,πριν από 2 μήνες,2023-06-01,38.00243,23.742167,,2257132.0,,https://www.xe.gr/property/d/enoikiaseis-katoikion/812068485/athhna-kypselh-480-70,Αθήνα,Κυψέλη,Διαμέρισμα,70.0,6.857142857142857,[0.0],0.0,1,2,μή,60
814906309,47135927,Διαμέρισμα 118 τ.μ.,Αθήνα (Ιπποκράτους),1300.0,11,118 τ.μ.,,['2'],,,πριν από 3 ημέρες,2023-06-01,37.984044,23.738239,Olympia Properties,1886936.0,,https://www.xe.gr/property/d/enoikiaseis-katoikion/814906309/athhna-ippokratoys-1300-118,Αθήνα,Ιπποκράτους,Διαμέρισμα,118.0,11.016949152542374,[2.0],2.0,1,3,ημ,3
813724846,47064561,Διαμέρισμα 95 τ.μ.,Αθήνα (Ακαδημία Πλάτωνος),500.0,5,95 τ.μ.,,['3'],,,πριν από 3 εβδομάδες,2023-06-01,37.99145471419971,23.71271456765084,,,,https://www.xe.gr/property/d/enoikiaseis-katoikion/813724846/athhna-akadhmia-platwnos-500-95,Αθήνα,Ακαδημία Πλάτωνος,Διαμέρισμα,95.0,5.2631578947368425,[3.0],3.0,1,3,εβ,21
813446687,47051813,Διαμέρισμα 100 τ.μ.,Αθήνα (Άγιος Παντελεήμονας),450.0,5,100 τ.μ.,,['2'],2.0,1.0,πριν από 3 εβδομάδες,2023-06-01,37.99546949470778,23.73140527750755,,,,https://www.xe.gr/property/d/enoikiaseis-katoikion/813446687/athhna-agios-pantelehmonas-450-100,Αθήνα,Άγιος Παντελεήμονας,Διαμέρισμα,100.0,4.5,[2.0],2.0,1,3,εβ,21
173743985,30067066,Διαμέρισμα 52 τ.μ.,Αθήνα (Άγιος Αρτέμιος),350.0,7,52 τ.μ.,1970.0,['4'],1.0,1.0,πριν από 2 μήνες,2023-06-01,37.96313955979811,23.745141904550664,,261793.0,,https://www.xe.gr/property/d/enoikiaseis-katoikion/173743985/athhna-agios-artemios-350-52,Αθήνα,Άγιος Αρτέμιος,Διαμέρισμα,52.0,6.730769230769231,[4.0],4.0,1,2,μή,60
810990246,46924530,Διαμέρισμα 88 τ.μ.,Αθήνα (Πανόρμου),800.0,9,88 τ.μ.,2000.0,['2'],2.0,1.0,πριν από 2 μήνες,2023-06-01,37.992603999627335,23.76604869650987,14 Real Estate,2206897.0,433354.0,https://www.xe.gr/property/d/enoikiaseis-katoikion/810990246/athhna-panormoy-800-88,Αθήνα,Πανόρμου,Διαμέρισμα,88.0,9.090909090909092,[2.0],2.0,1,2,μή,60
813073283,47031211,Διαμέρισμα 62 τ.μ.,Αθήνα (Αμπελόκηποι),450.0,7,62 τ.μ.,1962.0,['1'],2.0,1.0,πριν από 4 εβδομάδες,2023-06-01,37.9880519956932,23.757270309480077,,1554111.0,,https://www.xe.gr/property/d/enoikiaseis-katoikion/813073283/athhna-ampelokhpoi-450-62,Αθήνα,Αμπελόκηποι,Διαμέρισμα,62.0,7.258064516129032,[1.0],1.0,1,4,εβ,28
813084453,47032061,Διαμέρισμα 100 τ.μ.,Αθήνα (Πλατεία Βικτωρίας),900.0,9,100 τ.μ.,,['6'],2.0,2.0,πριν από 4 εβδομάδες,2023-06-01,37.99151372138367,23.73059184540825,,2222606.0,,https://www.xe.gr/property/d/enoikiaseis-katoikion/813084453/athhna-plateia-viktwrias-900-100,Αθήνα,Πλατεία Βικτωρίας,Διαμέρισμα,100.0,9.0,[6.0],6.0,1,4,εβ,28
811717896,46956645,Διαμέρισμα 100 τ.μ.,Αθήνα (Άγιος Αρτέμιος),1300.0,13,100 τ.μ.,1978.0,['5'],2.0,1.0,πριν από 2 μήνες,2023-06-01,37.960787,23.740371,Mobilia,342163.0,,https://www.xe.gr/property/d/enoikiaseis-katoikion/811717896/athhna-agios-artemios-1300-100,Αθήνα,Άγιος Αρτέμιος,Διαμέρισμα,100.0,13.0,[5.0],5.0,1,2,μή,60
813701550,47067936,Διαμέρισμα 52 τ.μ.,Αθήνα (Πεδίον Άρεως),450.0,9,52 τ.μ.,,['4'],1.0,,πριν από 2 εβδομάδες,2023-06-01,37.99330708458266,23.732064296466188,,,,https://www.xe.gr/property/d/enoikiaseis-katoikion/813701550/athhna-pedion-arews-450-52,Αθήνα,Πεδίον Άρεως,Διαμέρισμα,52.0,8.653846153846153,[4.0],4.0,1,2,εβ,14
812302674,46987904,Διαμέρισμα 40 τ.μ.,Αθήνα (Κυψέλη),350.0,9,40 τ.μ.,1970.0,['-0.5'],1.0,1.0,πριν από 2 μήνες,2023-06-01,37.99756630213055,23.733682849805184,One Real Estate,1168303.0,,https://www.xe.gr/property/d/enoikiaseis-katoikion/812302674/athhna-kypselh-350-40,Αθήνα,Κυψέλη,Διαμέρισμα,40.0,8.75,[-0.5],-0.5,1,2,μή,60
813832463,47070392,Διαμέρισμα 62 τ.μ.,Αθήνα (Πλατεία Αττικής),390.0,6,62 τ.μ.,,['3'],1.0,,πριν από 2 εβδομάδες,2023-06-01,37.9978218271257,23.722253517168145,,,,https://www.xe.gr/property/d/enoikiaseis-katoikion/813832463/athhna-plateia-attikhs-390-62,Αθήνα,Πλατεία Αττικής,Διαμέρισμα,62.0,6.290322580645161,[3.0],3.0,1,2,εβ,14
677281912,42698195,Διαμέρισμα 78 τ.μ.,Αθήνα (Παγκράτι),900.0,12,78 τ.μ.,1959.0,['4'],2.0,1.0,πριν από 2 μήνες,2023-06-01,37.96799094945096,23.747930142833884,,2001551.0,,https://www.xe.gr/property/d/enoikiaseis-katoikion/677281912/athhna-pagkrati-900-78,Αθήνα,Παγκράτι,Διαμέρισμα,78.0,11.538461538461538,[4.0],4.0,1,2,μή,60
811484082,46946246,Διαμέρισμα 66 τ.μ.,Αθήνα (Ηπείρου),600.0,9,66 τ.μ.,1960.0,['4'],2.0,1.0,πριν από 2 μήνες,2023-06-01,37.990998314835146,23.72710692324307,,2252029.0,456941.0,https://www.xe.gr/property/d/enoikiaseis-katoikion/811484082/athhna-hpeiroy-600-66,Αθήνα,Ηπείρου,Διαμέρισμα,66.0,9.090909090909092,[4.0],4.0,1,2,μή,60
813296242,47039107,Διαμέρισμα 70 τ.μ.,Αθήνα (Κάτω Πετράλωνα),700.0,10,70 τ.μ.,,['5'],2.0,,πριν από 3 εβδομάδες,2023-06-01,37.972427,23.708681,,2261757.0,,https://www.xe.gr/property/d/enoikiaseis-katoikion/813296242/athhna-katw-petralwna-700-70,Αθήνα,Κάτω Πετράλωνα,Διαμέρισμα,70.0,10.0,[5.0],5.0,1,3,εβ,21
813430712,47051213,Διαμέρισμα 85 τ.μ.,Αθήνα (Άνω Πετράλωνα),600.0,7,85 τ.μ.,,['1'],1.0,,πριν από 3 εβδομάδες,2023-06-01,37.96397625057908,23.708676002816045,,2262300.0,452664.0,https://www.xe.gr/property/d/enoikiaseis-katoikion/813430712/athhna-anw-petralwna-600-85,Αθήνα,Άνω Πετράλωνα,Διαμέρισμα,85.0,7.0588235294117645,[1.0],1.0,1,3,εβ,21
812738338,47002946,Διαμέρισμα 75 τ.μ.,Αθήνα (Άνω Πατήσια),500.0,7,75 τ.μ.,,['3'],,,πριν από 2 μήνες,2023-06-01,38.01672850176266,23.738143342276903,,1200365.0,,https://www.xe.gr/property/d/enoikiaseis-katoikion/812738338/athhna-anw-pathsia-500-75,Αθήνα,Άνω Πατήσια,Διαμέρισμα,75.0,6.666666666666667,[3.0],3.0,1,2,μή,60
813366985,47045082,Διαμέρισμα 70 τ.μ.,Αθήνα (Άγιος Ελευθέριος),550.0,8,70 τ.μ.,1969.0,['1'],2.0,1.0,πριν από 3 εβδομάδες,2023-06-01,38.01633175013876,23.72906442710571,,1555317.0,,https://www.xe.gr/property/d/enoikiaseis-katoikion/813366985/athhna-agios-eleytherios-550-70,Αθήνα,Άγιος Ελευθέριος,Διαμέρισμα,70.0,7.857142857142857,[1.0],1.0,1,3,εβ,21
748525483,44728882,Διαμέρισμα 100 τ.μ.,Αθήνα (Ακαδημία Πλάτωνος),580.0,6,100 τ.μ.,,['1'],2.0,1.0,πριν από 2 μήνες,2023-06-01,37.99511345136354,23.712262265520582,,241838.0,,https://www.xe.gr/property/d/enoikiaseis-katoikion/748525483/athhna-akadhmia-platwnos-580-100,Αθήνα,Ακαδημία Πλάτωνος,Διαμέρισμα,100.0,5.8,[1.0],1.0,1,2,μή,60
807497349,46741894,Διαμέρισμα 110 τ.μ.,Αθήνα (Πλατεία Βικτωρίας),700.0,6,110 τ.μ.,1972.0,['4'],2.0,,πριν από 2 μήνες,2023-06-01,37.993588228965855,23.72914773082888,Τεχνοκρατική Ακινήτων,212549.0,,https://www.xe.gr/property/d/enoikiaseis-katoikion/807497349/athhna-plateia-viktwrias-700-110,Αθήνα,Πλατεία Βικτωρίας,Διαμέρισμα,110.0,6.363636363636363,[4.0],4.0,1,2,μή,60
812531290,46999392,Διαμέρισμα 81 τ.μ.,Αθήνα (Πλατεία Αττικής),700.0,9,81 τ.μ.,1971.0,['5'],3.0,1.0,πριν από 2 μήνες,2023-06-01,37.99477659463581,23.723960228364778,,1928906.0,,https://www.xe.gr/property/d/enoikiaseis-katoikion/812531290/athhna-plateia-attikhs-700-81,Αθήνα,Πλατεία Αττικής,Διαμέρισμα,81.0,8.641975308641975,[5.0],5.0,1,2,μή,60
669087999,42446156,Διαμέρισμα 43 τ.μ.,Αθήνα (Πανόρμου),600.0,14,43 τ.μ.,,['0.5'],1.0,1.0,πριν από 2 μήνες,2023-06-01,37.99214689666567,23.765468907793704,,1841531.0,,https://www.xe.gr/property/d/enoikiaseis-katoikion/669087999/athhna-panormoy-600-43,Αθήνα,Πανόρμου,Διαμέρισμα,43.0,13.953488372093023,[0.5],0.5,1,2,μή,60
812084310,46975125,Διαμέρισμα 44 τ.μ.,Αθήνα (Κυψέλη),360.0,8,44 τ.μ.,1978.0,['-1'],1.0,1.0,πριν από 2 μήνες,2023-06-01,38.00221349134672,23.73835512387348,14 Real Estate,2206897.0,,https://www.xe.gr/property/d/enoikiaseis-katoikion/812084310/athhna-kypselh-360-44,Αθήνα,Κυψέλη,Διαμέρισμα,44.0,8.181818181818182,[-1.0],-1.0,1,2,μή,60
812917353,47020903,Διαμέρισμα 60 τ.μ.,Αθήνα (Σταθμός Λαρίσης),450.0,8,60 τ.μ.,,['4'],1.0,1.0,πριν από 4 εβδομάδες,2023-06-01,37.99678327874322,23.721784847367022,,1061896.0,,https://www.xe.gr/property/d/enoikiaseis-katoikion/812917353/athhna-stathmos-larishs-450-60,Αθήνα,Σταθμός Λαρίσης,Διαμέρισμα,60.0,7.5,[4.0],4.0,1,4,εβ,28
811063899,46926392,Διαμέρισμα 60 τ.μ.,Αθήνα (Μεταξουργείο),500.0,8,60 τ.μ.,,['3'],1.0,,πριν από 2 μήνες,2023-06-01,37.98867455224317,23.72231608927837,,,,https://www.xe.gr/property/d/enoikiaseis-katoikion/811063899/athhna-metaxoyrgeio-500-60,Αθήνα,Μεταξουργείο,Διαμέρισμα,60.0,8.333333333333334,[3.0],3.0,1,2,μή,60
813279308,47039927,Διαμέρισμα 70 τ.μ.,Αθήνα (Κολιάτσου),550.0,8,70 τ.μ.,2008.0,['2'],1.0,,πριν από 3 εβδομάδες,2023-06-01,38.01127,23.731981,,2261802.0,,https://www.xe.gr/property/d/enoikiaseis-katoikion/813279308/athhna-koliatsoy-550-70,Αθήνα,Κολιάτσου,Διαμέρισμα,70.0,7.857142857142857,[2.0],2.0,1,3,εβ,21
813383858,47012905,Διαμέρισμα 53 τ.μ.,Αθήνα (Πλατεία Αμερικής),430.0,8,53 τ.μ.,1961.0,['0.5'],1.0,1.0,πριν από 4 εβδομάδες,2023-06-01,38.001976,23.730319,Access Properties ,1956020.0,,https://www.xe.gr/property/d/enoikiaseis-katoikion/813383858/athhna-plateia-amerikhs-430-53,Αθήνα,Πλατεία Αμερικής,Διαμέρισμα,53.0,8.11320754716981,[0.5],0.5,1,4,εβ,28
812328986,46990170,Διαμέρισμα 30 τ.μ.,Αθήνα (Δουργούτι),370.0,12,30 τ.μ.,1975.0,['4'],1.0,1.0,πριν από 2 μήνες,2023-06-01,37.95459903797509,23.7220606716988,Τεχνοκρατική Ακινήτων,212549.0,,https://www.xe.gr/property/d/enoikiaseis-katoikion/812328986/athhna-doyrgoyti-370-30,Αθήνα,Δουργούτι,Διαμέρισμα,30.0,12.333333333333334,[4.0],4.0,1,2,μή,60
815095571,47145082,Διαμέρισμα 25 τ.μ.,Αθήνα (Άγιος Θωμάς),340.0,14,25 τ.μ.,2003.0,['3'],1.0,1.0,πριν από 1 ημέρα,2023-06-01,37.98113446887121,23.76230900556958,14 Real Estate,2206897.0,,https://www.xe.gr/property/d/enoikiaseis-katoikion/815095571/athhna-agios-thwmas-340-25,Αθήνα,Άγιος Θωμάς,Διαμέρισμα,25.0,13.6,[3.0],3.0,1,1,ημ,1
811961371,46969662,Διαμέρισμα 71 τ.μ.,Αθήνα (Γκύζη),650.0,9,71 τ.μ.,1968.0,['3'],1.0,1.0,πριν από 2 μήνες,2023-06-01,37.98990931813731,23.74679859689048,,2256669.0,449159.0,https://www.xe.gr/property/d/enoikiaseis-katoikion/811961371/athhna-gkyzh-650-71,Αθήνα,Γκύζη,Διαμέρισμα,71.0,9.154929577464788,[3.0],3.0,1,2,μή,60
807843698,46765633,Διαμέρισμα 30 τ.μ.,Αθήνα (Αγία Παρασκευή),400.0,13,30 τ.μ.,1991.0,['1'],1.0,1.0,πριν από 2 μήνες,2023-06-01,38.01507389667115,23.73203260066377,,1957049.0,,https://www.xe.gr/property/d/enoikiaseis-katoikion/807843698/athhna-agia-paraskeyh-400-30,Αθήνα,Αγία Παρασκευή,Διαμέρισμα,30.0,13.333333333333334,[1.0],1.0,1,2,μή,60
808376535,46792006,Διαμέρισμα 75 τ.μ.,Αθήνα (Αμπελόκηποι),730.0,10,75 τ.μ.,1965.0,['2'],2.0,1.0,πριν από 2 μήνες,2023-06-01,37.989518572288056,23.76225206396579,All About Property,96460.0,,https://www.xe.gr/property/d/enoikiaseis-katoikion/808376535/athhna-ampelokhpoi-730-75,Αθήνα,Αμπελόκηποι,Διαμέρισμα,75.0,9.733333333333333,[2.0],2.0,1,2,μή,60
813671459,47067408,Διαμέρισμα 47 τ.μ.,Αθήνα (Γκύζη),370.0,8,47 τ.μ.,1975.0,['-1'],1.0,1.0,πριν από 3 εβδομάδες,2023-06-01,37.99372836024675,23.749901988711187,14 Real Estate,2206897.0,,https://www.xe.gr/property/d/enoikiaseis-katoikion/813671459/athhna-gkyzh-370-47,Αθήνα,Γκύζη,Διαμέρισμα,47.0,7.872340425531915,[-1.0],-1.0,1,3,εβ,21
815215738,47149575,Διαμέρισμα 55 τ.μ.,Αθήνα (Κεραμεικός),350.0,6,55 τ.μ.,,['0'],1.0,,πριν από 9 ώρες,2023-06-01,37.98009514150788,23.71626912284812,,,,https://www.xe.gr/property/d/enoikiaseis-katoikion/815215738/athhna-kerameikos-350-55,Αθήνα,Κεραμεικός,Διαμέρισμα,55.0,6.363636363636363,[0.0],0.0,1,9,ώρ,0
801327984,46437020,Διαμέρισμα 55 τ.μ.,Αθήνα (Νέος Κόσμος),850.0,15,55 τ.μ.,2021.0,['1'],1.0,1.0,πριν από 2 μήνες,2023-06-01,37.95802588104556,23.72643718340232,RedsHellas,2026483.0,,https://www.xe.gr/property/d/enoikiaseis-katoikion/801327984/athhna-neos-kosmos-850-55,Αθήνα,Νέος Κόσμος,Διαμέρισμα,55.0,15.454545454545455,[1.0],1.0,1,2,μή,60
808541678,46800367,Διαμέρισμα 80 τ.μ.,Αθήνα (Εξάρχεια),650.0,8,80 τ.μ.,1972.0,['3'],2.0,1.0,πριν από 2 μήνες,2023-06-01,37.98669972057722,23.734223486286897,14 Real Estate,2206897.0,,https://www.xe.gr/property/d/enoikiaseis-katoikion/808541678/athhna-exarcheia-650-80,Αθήνα,Εξάρχεια,Διαμέρισμα,80.0,8.125,[3.0],3.0,1,2,μή,60
812834074,47015090,Διαμέρισμα 102 τ.μ.,Αθήνα (Μεταξουργείο),590.0,6,102 τ.μ.,,['5'],2.0,1.0,πριν από 4 εβδομάδες,2023-06-01,37.98484181319388,23.72045615121988,,,,https://www.xe.gr/property/d/enoikiaseis-katoikion/812834074/athhna-metaxoyrgeio-590-102,Αθήνα,Μεταξουργείο,Διαμέρισμα,102.0,5.784313725490196,[5.0],5.0,1,4,εβ,28
719335613,43841187,Διαμέρισμα 52 τ.μ.,Αθήνα (Σταθμός Λαρίσης),480.0,9,52 τ.μ.,1980.0,['5'],1.0,1.0,πριν από 2 μήνες,2023-06-01,37.993794746635366,23.721053428457065,,1845119.0,,https://www.xe.gr/property/d/enoikiaseis-katoikion/719335613/athhna-stathmos-larishs-480-52,Αθήνα,Σταθμός Λαρίσης,Διαμέρισμα,52.0,9.23076923076923,[5.0],5.0,1,2,μή,60
813279564,47040030,Διαμέρισμα 54 τ.μ.,Αθήνα (Προμπονά),500.0,9,54 τ.μ.,1970.0,['1'],1.0,1.0,πριν από 3 εβδομάδες,2023-06-01,38.02565274662208,23.734319147574787,Art Real Estate,1616976.0,,https://www.xe.gr/property/d/enoikiaseis-katoikion/813279564/athhna-prompona-500-54,Αθήνα,Προμπονά,Διαμέρισμα,54.0,9.25925925925926,[1.0],1.0,1,3,εβ,21
813367142,47044266,Διαμέρισμα 100 τ.μ.,Αθήνα (Εξάρχεια),1000.0,10,100 τ.μ.,,['2'],2.0,,πριν από 3 εβδομάδες,2023-06-01,37.98715929680667,23.73536232371653,,554083.0,,https://www.xe.gr/property/d/enoikiaseis-katoikion/813367142/athhna-exarcheia-1000-100,Αθήνα,Εξάρχεια,Διαμέρισμα,100.0,10.0,[2.0],2.0,1,3,εβ,21
813910538,47083828,Διαμέρισμα 120 τ.μ.,Αθήνα (Μπακνανά),850.0,7,120 τ.μ.,1970.0,['1'],3.0,1.0,πριν από 2 εβδομάδες,2023-06-01,37.95234886790431,23.723067253857103,Art Real Estate,1616976.0,450884.0,https://www.xe.gr/property/d/enoikiaseis-katoikion/813910538/athhna-mpaknana-850-120,Αθήνα,Μπακνανά,Διαμέρισμα,120.0,7.083333333333333,[1.0],1.0,1,2,εβ,14
812531218,46999882,Διαμέρισμα 66 τ.μ.,Αθήνα (Πλατεία Βικτωρίας),550.0,8,66 τ.μ.,1960.0,['3'],2.0,1.0,πριν από 2 μήνες,2023-06-01,37.99603142650372,23.729183089292725,,1928906.0,,https://www.xe.gr/property/d/enoikiaseis-katoikion/812531218/athhna-plateia-viktwrias-550-66,Αθήνα,Πλατεία Βικτωρίας,Διαμέρισμα,66.0,8.333333333333334,[3.0],3.0,1,2,μή,60
810642618,46899260,Διαμέρισμα 82 τ.μ.,Αθήνα (Ακαδημία Πλάτωνος),600.0,7,82 τ.μ.,,['2'],2.0,,πριν από 2 μήνες,2023-06-01,37.99223331813729,23.705723592315675,,2036418.0,,https://www.xe.gr/property/d/enoikiaseis-katoikion/810642618/athhna-akadhmia-platwnos-600-82,Αθήνα,Ακαδημία Πλάτωνος,Διαμέρισμα,82.0,7.317073170731708,[2.0],2.0,1,2,μή,60
809796501,46861278,Διαμέρισμα 50 τ.μ.,Αθήνα (Κολωνάκι),490.0,10,50 τ.μ.,1970.0,['-0.5'],1.0,1.0,πριν από 2 μήνες,2023-06-01,37.97753353540518,23.739985314189507,,1996007.0,,https://www.xe.gr/property/d/enoikiaseis-katoikion/809796501/athhna-kolwnaki-490-50,Αθήνα,Κολωνάκι,Διαμέρισμα,50.0,9.8,[-0.5],-0.5,1,2,μή,60
813907848,47057879,Διαμέρισμα 24 τ.μ.,Αθήνα (Ιπποκράτειο),350.0,15,24 τ.μ.,,['1'],,,πριν από 3 εβδομάδες,2023-06-01,37.982918,23.761465,,,,https://www.xe.gr/property/d/enoikiaseis-katoikion/813907848/athhna-ippokrateio-350-24,Αθήνα,Ιπποκράτειο,Διαμέρισμα,24.0,14.583333333333334,[1.0],1.0,1,3,εβ,21
812825878,47010013,Διαμέρισμα 50 τ.μ.,Αθήνα (Γκάζι),1200.0,24,50 τ.μ.,2022.0,['2'],,,πριν από 4 εβδομάδες,2023-06-01,37.97741036030229,23.71179167453497,,,,https://www.xe.gr/property/d/enoikiaseis-katoikion/812825878/athhna-gkazi-1200-50,Αθήνα,Γκάζι,Διαμέρισμα,50.0,24.0,[2.0],2.0,1,4,εβ,28
815197278,47149779,Διαμέρισμα 78 τ.μ.,Αθήνα (Ελληνορώσων),750.0,10,78 τ.μ.,,['3'],2.0,,πριν από 9 ώρες,2023-06-01,37.99542044213491,23.776146586422453,Magginas Realestate,565238.0,452338.0,https://www.xe.gr/property/d/enoikiaseis-katoikion/815197278/athhna-ellhnorwswn-750-78,Αθήνα,Ελληνορώσων,Διαμέρισμα,78.0,9.615384615384615,[3.0],3.0,1,9,ώρ,0
736666516,44419809,Διαμέρισμα 85 τ.μ.,Αθήνα (Ακαδημία Πλάτωνος),1250.0,15,85 τ.μ.,2008.0,['3'],2.0,1.0,πριν από 2 μήνες,2023-06-01,37.98487899790536,23.71262478621571,,1724243.0,,https://www.xe.gr/property/d/enoikiaseis-katoikion/736666516/athhna-akadhmia-platwnos-1250-85,Αθήνα,Ακαδημία Πλάτωνος,Διαμέρισμα,85.0,14.705882352941176,[3.0],3.0,1,2,μή,60
809731022,46858412,Διαμέρισμα 85 τ.μ.,Αθήνα (Παγκράτι),680.0,8,85 τ.μ.,1975.0,['2'],2.0,1.0,πριν από 2 μήνες,2023-06-01,37.97060976083623,23.743742213070025,Art Real Estate,1616976.0,,https://www.xe.gr/property/d/enoikiaseis-katoikion/809731022/athhna-pagkrati-680-85,Αθήνα,Παγκράτι,Διαμέρισμα,85.0,8.0,[2.0],2.0,1,2,μή,60
811787864,46960779,Διαμέρισμα 30 τ.μ.,Αθήνα (Ιπποκράτους),150.0,5,30 τ.μ.,,['-0.5'],,,πριν από 2 μήνες,2023-06-01,37.98279,23.73796,,,,https://www.xe.gr/property/d/enoikiaseis-katoikion/811787864/athhna-ippokratoys-150-30,Αθήνα,Ιπποκράτους,Διαμέρισμα,30.0,5.0,[-0.5],-0.5,1,2,μή,60
813488729,47055834,Διαμέρισμα 66 τ.μ.,Αθήνα (Παγκράτι),650.0,10,66 τ.μ.,1975.0,['0.5'],2.0,1.0,πριν από 3 εβδομάδες,2023-06-01,37.969424091597446,23.748961048108143,Golden Riviera Athens Realty,2007009.0,,https://www.xe.gr/property/d/enoikiaseis-katoikion/813488729/athhna-pagkrati-650-66,Αθήνα,Παγκράτι,Διαμέρισμα,66.0,9.848484848484848,[0.5],0.5,1,3,εβ,21
812794781,47008734,Διαμέρισμα 35 τ.μ.,Αθήνα (Ηπείρου),290.0,8,35 τ.μ.,,['1'],1.0,,πριν από 4 εβδομάδες,2023-06-01,37.99230891804108,23.72978550797381,,,,https://www.xe.gr/property/d/enoikiaseis-katoikion/812794781/athhna-hpeiroy-290-35,Αθήνα,Ηπείρου,Διαμέρισμα,35.0,8.285714285714286,[1.0],1.0,1,4,εβ,28
812244401,46983295,Διαμέρισμα 90 τ.μ.,Αθήνα (Σταθμός Λαρίσης),520.0,6,90 τ.μ.,,['4'],2.0,,πριν από 2 μήνες,2023-06-01,37.98836627874349,23.7190877950645,,2117825.0,447016.0,https://www.xe.gr/property/d/enoikiaseis-katoikion/812244401/athhna-stathmos-larishs-520-90,Αθήνα,Σταθμός Λαρίσης,Διαμέρισμα,90.0,5.777777777777778,[4.0],4.0,1,2,μή,60
812724790,46988293,Διαμέρισμα 75 τ.μ.,Αθήνα (Κέντρο),1100.0,15,75 τ.μ.,,['5'],1.0,1.0,πριν από 2 μήνες,2023-06-01,37.97745168173254,23.729290441352997,,1954356.0,,https://www.xe.gr/property/d/enoikiaseis-katoikion/812724790/athhna-kentro-1100-75,Αθήνα,Κέντρο,Διαμέρισμα,75.0,14.666666666666666,[5.0],5.0,1,2,μή,60
811043225,46928001,Διαμέρισμα 76 τ.μ.,Αθήνα (Άγιος Λουκάς),480.0,6,76 τ.μ.,,['2'],2.0,,πριν από 2 μήνες,2023-06-01,38.012524,23.737173,,1705013.0,,https://www.xe.gr/property/d/enoikiaseis-katoikion/811043225/athhna-agios-loykas-480-76,Αθήνα,Άγιος Λουκάς,Διαμέρισμα,76.0,6.315789473684211,[2.0],2.0,1,2,μή,60
811957783,46913227,Διαμέρισμα 45 τ.μ.,Αθήνα (Βαρνάβα),450.0,10,45 τ.μ.,,['1'],1.0,,πριν από 2 μήνες,2023-06-01,37.96579,23.743168,,,,https://www.xe.gr/property/d/enoikiaseis-katoikion/811957783/athhna-varnava-450-45,Αθήνα,Βαρνάβα,Διαμέρισμα,45.0,10.0,[1.0],1.0,1,2,μή,60
807475585,46740875,Διαμέρισμα 69 τ.μ.,Αθήνα (Μεταξουργείο),650.0,9,69 τ.μ.,1967.0,['4'],2.0,1.0,πριν από 2 μήνες,2023-06-01,37.984634389589736,23.71969903368437,AKN Properties,1108909.0,,https://www.xe.gr/property/d/enoikiaseis-katoikion/807475585/athhna-metaxoyrgeio-650-69,Αθήνα,Μεταξουργείο,Διαμέρισμα,69.0,9.420289855072463,[4.0],4.0,1,2,μή,60
813771825,47074085,Διαμέρισμα 65 τ.μ.,Αθήνα (Γκύζη),730.0,11,65 τ.μ.,1970.0,['5'],1.0,1.0,πριν από 2 εβδομάδες,2023-06-01,37.99096977067097,23.741893602700333,Τσαούσης - Σταυρόπουλος,215073.0,,https://www.xe.gr/property/d/enoikiaseis-katoikion/813771825/athhna-gkyzh-730-65,Αθήνα,Γκύζη,Διαμέρισμα,65.0,11.23076923076923,[5.0],5.0,1,2,εβ,14
616772568,40718345,Διαμέρισμα 62 τ.μ.,Αθήνα (Νεάπολη),550.0,9,62 τ.μ.,1975.0,['2'],1.0,1.0,πριν από 2 μήνες,2023-06-01,37.98735,23.74977,,1096401.0,435308.0,https://www.xe.gr/property/d/enoikiaseis-katoikion/616772568/athhna-neapolh-550-62,Αθήνα,Νεάπολη,Διαμέρισμα,62.0,8.870967741935484,[2.0],2.0,1,2,μή,60
812371568,46992709,Διαμέρισμα 116 τ.μ.,Αθήνα (Παναθηναϊκό Στάδιο),1150.0,10,116 τ.μ.,1968.0,['2'],3.0,2.0,πριν από 2 μήνες,2023-06-01,37.965913062913664,23.74186841912719,,998602.0,443163.0,https://www.xe.gr/property/d/enoikiaseis-katoikion/812371568/athhna-panathhnaiko-stadio-1150-116,Αθήνα,Παναθηναϊκό Στάδιο,Διαμέρισμα,116.0,9.913793103448276,[2.0],2.0,1,2,μή,60
811815944,46961110,Διαμέρισμα 50 τ.μ.,Αθήνα (Εξάρχεια),600.0,12,50 τ.μ.,1960.0,['5'],1.0,1.0,πριν από 2 μήνες,2023-06-01,37.984351444179815,23.7353174659174,PRO Realtor,1950638.0,436813.0,https://www.xe.gr/property/d/enoikiaseis-katoikion/811815944/athhna-exarcheia-600-50,Αθήνα,Εξάρχεια,Διαμέρισμα,50.0,12.0,[5.0],5.0,1,2,μή,60
812503388,46998023,Διαμέρισμα 50 τ.μ.,Αθήνα (Παγκράτι),500.0,10,50 τ.μ.,,['2'],,,πριν από 2 μήνες,2023-06-01,37.96639717585094,23.753701171788784,,,,https://www.xe.gr/property/d/enoikiaseis-katoikion/812503388/athhna-pagkrati-500-50,Αθήνα,Παγκράτι,Διαμέρισμα,50.0,10.0,[2.0],2.0,1,2,μή,60
813497419,47056945,Διαμέρισμα 51 τ.μ.,Αθήνα (Γούβα),550.0,11,51 τ.μ.,1972.0,['0.5'],1.0,1.0,πριν από 3 εβδομάδες,2023-06-01,37.95772538982339,23.743837819437022,Golden Home,616129.0,,https://www.xe.gr/property/d/enoikiaseis-katoikion/813497419/athhna-goyva-550-51,Αθήνα,Γούβα,Διαμέρισμα,51.0,10.784313725490197,[0.5],0.5,1,3,εβ,21
805518378,46627880,Διαμέρισμα 85 τ.μ.,Αθήνα (Κολιάτσου),680.0,8,85 τ.μ.,1999.0,['6'],2.0,1.0,πριν από 2 μήνες,2023-06-01,38.008200730001846,23.737933992247967,Art Real Estate,1616976.0,,https://www.xe.gr/property/d/enoikiaseis-katoikion/805518378/athhna-koliatsoy-680-85,Αθήνα,Κολιάτσου,Διαμέρισμα,85.0,8.0,[6.0],6.0,1,2,μή,60
811919315,46967908,Διαμέρισμα 50 τ.μ.,Αθήνα (Άνω Πατήσια),390.0,8,50 τ.μ.,1967.0,['0'],1.0,1.0,πριν από 2 μήνες,2023-06-01,38.01989617585015,23.735882398089725,Art Real Estate,1616976.0,,https://www.xe.gr/property/d/enoikiaseis-katoikion/811919315/athhna-anw-pathsia-390-50,Αθήνα,Άνω Πατήσια,Διαμέρισμα,50.0,7.8,[0.0],0.0,1,2,μή,60
810651449,46905179,Διαμέρισμα 36 τ.μ.,Αθήνα (Εξάρχεια),310.0,9,36 τ.μ.,,['0'],,,πριν από 2 μήνες,2023-06-01,37.98808,23.735323,,,,https://www.xe.gr/property/d/enoikiaseis-katoikion/810651449/athhna-exarcheia-310-36,Αθήνα,Εξάρχεια,Διαμέρισμα,36.0,8.61111111111111,[0.0],0.0,1,2,μή,60
812748889,47009358,Διαμέρισμα 26 τ.μ.,Αθήνα (Ακαδημία Πλάτωνος),300.0,12,26 τ.μ.,,['0.5'],,,πριν από 4 εβδομάδες,2023-06-01,37.9880072810634,23.71398606858389,,,,https://www.xe.gr/property/d/enoikiaseis-katoikion/812748889/athhna-akadhmia-platwnos-300-26,Αθήνα,Ακαδημία Πλάτωνος,Διαμέρισμα,26.0,11.538461538461538,[0.5],0.5,1,4,εβ,28
812927460,47021572,Διαμέρισμα 26 τ.μ.,Αθήνα (Κυνοσάργους),290.0,11,26 τ.μ.,,['0.5'],1.0,,πριν από 4 εβδομάδες,2023-06-01,37.957596,23.729528,,,,https://www.xe.gr/property/d/enoikiaseis-katoikion/812927460/athhna-kynosargoys-290-26,Αθήνα,Κυνοσάργους,Διαμέρισμα,26.0,11.153846153846153,[0.5],0.5,1,4,εβ,28
812725701,47009254,Διαμέρισμα 43 τ.μ.,Αθήνα (Προφήτης Ηλίας),800.0,19,43 τ.μ.,,['2'],1.0,,πριν από 4 εβδομάδες,2023-06-01,37.96576338965218,23.74951825981221,,2038332.0,458550.0,https://www.xe.gr/property/d/enoikiaseis-katoikion/812725701/athhna-profhths-hlias-800-43,Αθήνα,Προφήτης Ηλίας,Διαμέρισμα,43.0,18.6046511627907,[2.0],2.0,1,4,εβ,28
812769889,47012019,Διαμέρισμα 135 τ.μ.,Αθήνα (Κολωνάκι),2000.0,15,135 τ.μ.,1975.0,['2'],2.0,1.0,πριν από 4 εβδομάδες,2023-06-01,37.977152,23.743953,Level Realty,1261107.0,,https://www.xe.gr/property/d/enoikiaseis-katoikion/812769889/athhna-kolwnaki-2000-135,Αθήνα,Κολωνάκι,Διαμέρισμα,135.0,14.814814814814815,[2.0],2.0,1,4,εβ,28
812861960,47017914,Διαμέρισμα 30 τ.μ.,Αθήνα (Κυψέλη),370.0,12,30 τ.μ.,1975.0,['-1'],1.0,1.0,πριν από 4 εβδομάδες,2023-06-01,38.00204472277567,23.73807877219149,14 Real Estate,2206897.0,,https://www.xe.gr/property/d/enoikiaseis-katoikion/812861960/athhna-kypselh-370-30,Αθήνα,Κυψέλη,Διαμέρισμα,30.0,12.333333333333334,[-1.0],-1.0,1,4,εβ,28
813003075,47025700,Διαμέρισμα 85 τ.μ.,Αθήνα (Πλατεία Βικτωρίας),500.0,6,85 τ.μ.,,['6'],2.0,,πριν από 4 εβδομάδες,2023-06-01,37.994017708577786,23.72759243678079,,,,https://www.xe.gr/property/d/enoikiaseis-katoikion/813003075/athhna-plateia-viktwrias-500-85,Αθήνα,Πλατεία Βικτωρίας,Διαμέρισμα,85.0,5.882352941176471,[6.0],6.0,1,4,εβ,28
812907164,47020048,Διαμέρισμα 82 τ.μ.,Αθήνα (Άνω Κυψέλη),550.0,7,82 τ.μ.,2002.0,['1'],,,πριν από 4 εβδομάδες,2023-06-01,38.00679201658205,23.748228521950207,,,,https://www.xe.gr/property/d/enoikiaseis-katoikion/812907164/athhna-anw-kypselh-550-82,Αθήνα,Άνω Κυψέλη,Διαμέρισμα,82.0,6.7073170731707314,[1.0],1.0,1,4,εβ,28
805369148,46617325,Διαμέρισμα 78 τ.μ.,Αθήνα (Κυψέλη),450.0,6,78 τ.μ.,1970.0,['2'],2.0,,πριν από 2 μήνες,2023-06-01,38.000165720575644,23.74089632591325,Πρόταση,218113.0,441181.0,https://www.xe.gr/property/d/enoikiaseis-katoikion/805369148/athhna-kypselh-450-78,Αθήνα,Κυψέλη,Διαμέρισμα,78.0,5.769230769230769,[2.0],2.0,1,2,μή,60
810991276,46924628,Διαμέρισμα 68 τ.μ.,Αθήνα (Κεραμεικός),650.0,10,68 τ.μ.,1974.0,['4'],2.0,1.0,πριν από 2 μήνες,2023-06-01,37.97987884152019,23.717847385484767,14 Real Estate,2206897.0,,https://www.xe.gr/property/d/enoikiaseis-katoikion/810991276/athhna-kerameikos-650-68,Αθήνα,Κεραμεικός,Διαμέρισμα,68.0,9.558823529411764,[4.0],4.0,1,2,μή,60
796521787,46197333,Διαμέρισμα 77 τ.μ.,Αθήνα (Γκύζη),650.0,8,77 τ.μ.,1980.0,['4'],2.0,1.0,πριν από 2 μήνες,2023-06-01,37.99081873360178,23.75232722041912,14 Real Estate,2206897.0,,https://www.xe.gr/property/d/enoikiaseis-katoikion/796521787/athhna-gkyzh-650-77,Αθήνα,Γκύζη,Διαμέρισμα,77.0,8.441558441558442,[4.0],4.0,1,2,μή,60
735763313,44399661,Διαμέρισμα 90 τ.μ.,Αθήνα (Κολιάτσου),600.0,7,90 τ.μ.,1978.0,['3'],2.0,1.0,πριν από 2 μήνες,2023-06-01,38.010197360244455,23.73463420388745,Seven Estate,155297.0,,https://www.xe.gr/property/d/enoikiaseis-katoikion/735763313/athhna-koliatsoy-600-90,Αθήνα,Κολιάτσου,Διαμέρισμα,90.0,6.666666666666667,[3.0],3.0,1,2,μή,60
812319711,46981680,Διαμέρισμα 45 τ.μ.,Αθήνα (Κυψέλη),330.0,7,45 τ.μ.,,['0.5'],1.0,1.0,πριν από 2 μήνες,2023-06-01,38.002716,23.742315,,,,https://www.xe.gr/property/d/enoikiaseis-katoikion/812319711/athhna-kypselh-330-45,Αθήνα,Κυψέλη,Διαμέρισμα,45.0,7.333333333333333,[0.5],0.5,1,2,μή,60
811205610,46931124,Διαμέρισμα 25 τ.μ.,Αθήνα (Παγκράτι),380.0,15,25 τ.μ.,,['5'],,,πριν από 2 μήνες,2023-06-01,37.97057944213652,23.748032365881496,,517655.0,,https://www.xe.gr/property/d/enoikiaseis-katoikion/811205610/athhna-pagkrati-380-25,Αθήνα,Παγκράτι,Διαμέρισμα,25.0,15.2,[5.0],5.0,1,2,μή,60
811648608,46952574,Διαμέρισμα 120 τ.μ.,Αθήνα (Παγκράτι),1540.0,13,120 τ.μ.,1960.0,['2'],3.0,2.0,πριν από 2 μήνες,2023-06-01,37.971238,23.744859,BLUEGROUND REAL ESTATE,1220409.0,,https://www.xe.gr/property/d/enoikiaseis-katoikion/811648608/athhna-pagkrati-1540-120,Αθήνα,Παγκράτι,Διαμέρισμα,120.0,12.833333333333334,[2.0],2.0,1,2,μή,60
804229928,46554076,Διαμέρισμα 36 τ.μ.,Αθήνα (Άνω Πετράλωνα),400.0,11,36 τ.μ.,1968.0,['-0.5'],1.0,1.0,πριν από 2 μήνες,2023-06-01,37.96778,23.709,One Real Estate,1168303.0,,https://www.xe.gr/property/d/enoikiaseis-katoikion/804229928/athhna-anw-petralwna-400-36,Αθήνα,Άνω Πετράλωνα,Διαμέρισμα,36.0,11.11111111111111,[-0.5],-0.5,1,2,μή,60
815216453,47150262,Διαμέρισμα 37 τ.μ.,Αθήνα (Άνω Πατήσια),380.0,10,37 τ.μ.,,['1'],,,πριν από 7 ώρες,2023-06-01,38.01942057662959,23.739155330450668,,,,https://www.xe.gr/property/d/enoikiaseis-katoikion/815216453/athhna-anw-pathsia-380-37,Αθήνα,Άνω Πατήσια,Διαμέρισμα,37.0,10.27027027027027,[1.0],1.0,1,7,ώρ,0
812552872,46994402,Διαμέρισμα 100 τ.μ.,Αθήνα (Πλάκα),1500.0,15,100 τ.μ.,1900.0,['1'],2.0,2.0,πριν από 2 μήνες,2023-06-01,37.97388061225341,23.72932762863476,PRO Realtor,1950638.0,356416.0,https://www.xe.gr/property/d/enoikiaseis-katoikion/812552872/athhna-plaka-1500-100,Αθήνα,Πλάκα,Διαμέρισμα,100.0,15.0,[1.0],1.0,1,2,μή,60
812802907,47002328,Διαμέρισμα 84 τ.μ.,Αθήνα (Παγκράτι),650.0,8,84 τ.μ.,,['4'],1.0,,πριν από 2 μήνες,2023-06-01,37.97057944213652,23.748032365881496,,2239778.0,,https://www.xe.gr/property/d/enoikiaseis-katoikion/812802907/athhna-pagkrati-650-84,Αθήνα,Παγκράτι,Διαμέρισμα,84.0,7.738095238095238,[4.0],4.0,1,2,μή,60
810709686,46908402,Διαμέρισμα 55 τ.μ.,Αθήνα (Άνω Κυψέλη),400.0,7,55 τ.μ.,1965.0,['0.5'],1.0,,πριν από 2 μήνες,2023-06-01,38.00703671115036,23.736592397334547,Πρόταση,218113.0,,https://www.xe.gr/property/d/enoikiaseis-katoikion/810709686/athhna-anw-kypselh-400-55,Αθήνα,Άνω Κυψέλη,Διαμέρισμα,55.0,7.2727272727272725,[0.5],0.5,1,2,μή,60
812945402,47023851,Διαμέρισμα 78 τ.μ.,Αθήνα (Πλατεία Βικτωρίας),1500.0,19,78 τ.μ.,2023.0,"['6', '7']",2.0,2.0,πριν από 4 εβδομάδες,2023-06-01,37.99434368476315,23.728659686428752,All About Property,96460.0,,https://www.xe.gr/property/d/enoikiaseis-katoikion/812945402/athhna-plateia-viktwrias-1500-78,Αθήνα,Πλατεία Βικτωρίας,Διαμέρισμα,78.0,19.23076923076923,"[6.0, 7.0]",6.0,2,4,εβ,28
815168671,47143914,Διαμέρισμα 58 τ.μ.,Αθήνα (Άνω Πετράλωνα),430.0,7,58 τ.μ.,,['0'],,,πριν από 1 ημέρα,2023-06-01,37.971310720988434,23.711076745760565,,,,https://www.xe.gr/property/d/enoikiaseis-katoikion/815168671/athhna-anw-petralwna-430-58,Αθήνα,Άνω Πετράλωνα,Διαμέρισμα,58.0,7.413793103448276,[0.0],0.0,1,1,ημ,1
809191763,46832808,Διαμέρισμα 86 τ.μ.,Αθήνα (Άγιος Παντελεήμονας),550.0,6,86 τ.μ.,1970.0,['2'],2.0,1.0,πριν από 2 μήνες,2023-06-01,37.999076,23.730696,Plasis Real Estate + Development,1905993.0,,https://www.xe.gr/property/d/enoikiaseis-katoikion/809191763/athhna-agios-pantelehmonas-550-86,Αθήνα,Άγιος Παντελεήμονας,Διαμέρισμα,86.0,6.395348837209302,[2.0],2.0,1,2,μή,60
815088346,47144460,Διαμέρισμα 40 τ.μ.,Αθήνα (Πανόρμου),500.0,13,40 τ.μ.,,['5'],,,πριν από 1 ημέρα,2023-06-01,37.99638,23.763279,,1200365.0,,https://www.xe.gr/property/d/enoikiaseis-katoikion/815088346/athhna-panormoy-500-40,Αθήνα,Πανόρμου,Διαμέρισμα,40.0,12.5,[5.0],5.0,1,1,ημ,1
